region,winery_name,latitude,longitude,url
"Guaymallén, Argentina",Bodega Los Toneles,-32.8964,-68.81729,https://linktr.ee/Bodegalostoneles
"Guaymallén, Argentina",Bodegas y Viñedos Amadeo Marañon,-32.89653,-68.81472,http://bodegasmaranon.com.ar/
"Guaymallén, Argentina",Bodega Barberis,-32.86422,-68.75041,http://www.bodegabarberis.com/
"Guaymallén, Argentina",Mipser Bodega,-32.86522,-68.79126,
"Guaymallén, Argentina",BODEGA GASPARONI CARUSO,-32.85921,-68.7778,http://www.gasparonicaruso.com.ar/
"Guaymallén, Argentina",BODEGA FAMILIA GAROFOLI,-32.86222,-68.79011,
"Guaymallén, Argentina",Bodegas Santa Ana,-32.89201,-68.77605,
"Guaymallén, Argentina",Bodega Duret,-32.9516,-68.71352,http://bodegaduret.com/
"Guaymallén, Argentina",Vineria San Jose,-32.9026,-68.8069,
"Guaymallén, Argentina",Bodega Menegozzi,-32.90096,-68.8105,https://www.facebook.com/Bodega-Menegozzi-1889002604538882/
"Guaymallén, Argentina",Bodega RFM,-32.92845,-68.74211,http://www.bodegarfm.com.ar/
"Guaymallén, Argentina",Proemio Wines,-32.89359,-68.69049,http://www.proemiowines.com/
"Guaymallén, Argentina",Bodega CopiHnos,-32.90446,-68.73818,
"Cuyo, Argentina",Bodegas Chandon,-33.1384,-68.88938,https://www.chandon.com.ar/
"Cuyo, Argentina",Bodegas Norton,-33.08848,-68.88753,http://www.norton.com.ar/
"Cuyo, Argentina",Bodega Tierras Altas,-32.97993,-68.8467,http://www.familiavargasarizu.com/
"Cuyo, Argentina",Bodega Ruca Malen,-33.09436,-68.92903,http://www.bodegarucamalen.com/
"Cuyo, Argentina","Clos de Chacras, bodega y restaurante",-32.98255,-68.87669,http://www.closdechacras.com.ar/
"Cuyo, Argentina",Hacienda del Plata,-32.99295,-68.86328,http://www.haciendadelplata.com/
"Cuyo, Argentina",Bodega Roberto Bonfanti,-33.06175,-68.86645,http://www.vinosbonfanti.com.ar/
"Cuyo, Argentina",Bodega Vistalba,-33.03537,-68.91614,https://www.bodegavistalba.com/
"Cuyo, Argentina",Bodega Budeguer,-33.15176,-68.89232,http://www.bodegabudeguer.com/
"Cuyo, Argentina",Bodega Renacer,-33.06659,-68.90523,http://www.bodegarenacer.com.ar/
"Cuyo, Argentina",Pulenta Estate,-33.19629,-68.95602,http://www.pulentaestate.com/
"Cuyo, Argentina",Casarena Bodega y Viñedos,-33.06683,-68.88975,http://www.casarena.com/
"Cuyo, Argentina",Bodega Cruzat,-33.07509,-68.92421,http://www.bodegacruzat.com/
"Cuyo, Argentina",Bodega Kaiken,-33.04006,-68.93716,http://www.kaikenwines.com/
"Cuyo, Argentina",Alta Vista Wines,-33.00263,-68.87416,
"Cuyo, Argentina",Susana Balbo Wines,-33.11541,-68.9031,https://www.susanabalbowines.com.ar/
"Cuyo, Argentina",Lamadrid Estate Wines,-33.03636,-68.9646,http://www.lamadridwines.com/
"Cuyo, Argentina",Bodega Piattelli Vineyards,-33.17078,-68.91982,http://www.piattellivineyards.com/
"Cuyo, Argentina",Bodega Ojo de Agua,-33.13015,-68.96358,https://ojodeagua.global/
"Cuyo, Argentina",ANAIA WINES,-33.18143,-68.89093,http://anaiawines.com/
"Cuyo, Argentina",Bodega Zolo,-33.15638,-68.89595,http://www.tapiz.com.ar/
"Cuyo, Argentina",Finca La Anita,-33.17288,-68.91991,https://www.fincalaanita.com/
"Cuyo, Argentina",Dolium Bodega Subterranea,-33.14717,-68.88979,http://www.dolium.com/
"Cuyo, Argentina",Bodega Séptima,-33.09371,-68.94612,http://www.bodegaseptima.com/enoturismo
"Cuyo, Argentina",Bodega Quimera,-33.10495,-68.89753,https://www.achaval-ferrer.com/
"Cuyo, Argentina",Monte Quieto Bodega de Familia,-33.15402,-68.91908,http://www.montequieto.com/
"Cuyo, Argentina",Huarpe Wines,-33.1543,-68.89155,http://www.huarpewines.com.ar/
"Cuyo, Argentina",Catena Zapata,-33.16396,-68.91952,http://www.catenazapata.com/
"Cuyo, Argentina",Bodega Benegas,-33.00459,-68.85055,https://benegaswinery.com/
"Cuyo, Argentina",Bodega Pulmary - Vinos Orgánicos,-32.98766,-68.88405,http://www.pulmary.com.ar/
"Cuyo, Argentina",Bodega VIAMONTE,-33.02038,-68.88504,http://viamontewinery.com/
"Cuyo, Argentina",Carmine Granata Winery and Vineyards SA,-33.02116,-68.88085,http://www.bgacarminegranata.com.ar/
"Cuyo, Argentina",Carmelo Patti,-33.0148,-68.87088,https://www.bodegacarmelopatti.com/
"Cuyo, Argentina",BODEGA GIECO - Giorgio Gieco,-33.01873,-68.90885,http://www.bodegagieco.com/
"Cuyo, Argentina",Bodega Cánepa,-33.00195,-68.88793,https://www.bodegacanepa.com/
"Cuyo, Argentina",Bodega Luigi Bosca,-33.01957,-68.8731,http://luigibosca.com/
"Cuyo, Argentina",Miguel Minni Winery and Vineyards SA,-33.06161,-68.86685,https://bodegamiguelminni.com.ar/
"Cuyo, Argentina",Bodega Staphyle,-32.97527,-68.849,http://www.staphyle.com/
"Cuyo, Argentina",Bodega y Viñedos Dos Familias,-32.96586,-68.8515,
"Cuyo, Argentina",Viña Cobos,-33.09538,-68.92636,http://www.vinacobos.com/
"Cuyo, Argentina",Bodega Cabrini,-33.07505,-68.88456,https://www.cabrini.com.ar/
"Cuyo, Argentina",Bodega Achaval Ferrer,-33.05657,-68.91374,http://www.achaval-ferrer.com/
"Cuyo, Argentina",Bodega RJ Viñedos,-33.06495,-68.86725,http://www.rjvinedos.com/
"Cuyo, Argentina",Bodega Dante Robino,-33.05302,-68.87755,http://www.bodegadanterobino.com/
"Cuyo, Argentina",Bodega Wine Valley,-33.0724,-68.88503,
"Cuyo, Argentina",Bodega Matervini,-33.05846,-68.91249,http://www.matervini.com/
"Cuyo, Argentina",Bodega Sottano,-33.09509,-68.92443,http://www.bodegasottano.com/
"Cuyo, Argentina",Altieri Family Winery - Vinorum,-33.06758,-68.90156,http://www.vinorum.com.ar/
"Cuyo, Argentina",Bodega Lagarde,-33.02328,-68.87258,http://www.lagarde.com.ar/
"Cuyo, Argentina",Terrazas de los Andes,-33.08218,-68.89645,http://www.terrazasdelosandes.com.ar/
"Cuyo, Argentina",Bodega Alpamanta,-33.23541,-68.93349,https://alpamanta.com/
"Cuyo, Argentina",Bodega Mauricio Lorca - Autor de Vinos,-33.06704,-68.89643,http://www.bodegafosterlorca.com/
"Cuyo, Argentina",Belasco de Baquedano,-33.11828,-68.91677,https://wineobs.com.ar/winery/belasco-de-baquedano
"Cuyo, Argentina",BODEGA SUR DE LOS ANDES,-33.02492,-68.95246,
"Cuyo, Argentina",CAVAS DE WEINERT,-32.98359,-68.8599,http://bodegaweinert.com/en-index.html
"Cuyo, Argentina",Riccitelli Wines,-33.03084,-68.95733,https://matiasriccitelli.com/
"Cuyo, Argentina",Bodega de Espumantes Piedras 202,-32.96644,-68.87025,https://www.bodegapiedras202.com.ar/
"Cuyo, Argentina",CAVAS ROSSEL BOHER,-32.99447,-68.87815,https://www.rosellboher.com/
"Cuyo, Argentina",BODEGA AMALIA,-32.96911,-68.85429,http://amalia.com.ar/
"Cuyo, Argentina",Cantina Besares,-32.98083,-68.86573,
"Cuyo, Argentina",Bodega Krontiras,-33.06745,-68.84441,https://www.krontiraswines.com/
"Cuyo, Argentina",Bodega Caelum,-33.08957,-68.94331,
"Cuyo, Argentina",Bodega Bressia,-33.1091,-68.89794,http://www.bressiabodega.com/
"Cuyo, Argentina",Bodega Chakana,-33.17964,-68.91314,
"Cuyo, Argentina",Bodegas San Huberto,-33.0202,-68.90856,http://www.bodegassanhuberto.com.ar
"Cuyo, Argentina","Bodega Familia Adrover, Lujan de Cuyo, Mendoza",-33.05572,-68.88238,http://www.bodegaadrover.com/
"Cuyo, Argentina",DURIGUTTI FAMILY WINEMAKERS - FINCA VICTORIA,-33.02436,-68.95143,http://www.durigutti.com/
"Cuyo, Argentina",Bodega DE ANGELES Old Vines Vistalba Viña 1924,-33.03318,-68.8997,http://www.malbecdeangeles.com/
"Cuyo, Argentina",Bodega A16,-33.09176,-68.91442,http://www.a16sa.com.ar/
"Cuyo, Argentina",Finca Iral,-33.19504,-68.92777,https://fincairal.com/
"Cuyo, Argentina",Viña Doña Paula,-33.25117,-68.94094,http://www.donapaula.com/
"Cuyo, Argentina",Cheval Des Andes,-33.03686,-68.9569,http://www.chevaldesandes.com.ar/
"Cuyo, Argentina",Bodega Mastroeni,-33.01559,-68.85385,https://mastroeniwines.com/
"Cuyo, Argentina",Bodega Fabre S.A.,-33.08843,-68.87735,http://www.bodegasfabre.com/
"Cuyo, Argentina",Viña Las Perdices,-33.11443,-68.9426,http://www.lasperdices.com/
"Cuyo, Argentina",Finca Bandini,-33.04642,-68.95949,https://fincabandini.com/
"Cuyo, Argentina",Vinificadora Aconcagua,-33.0755,-68.92101,
"Maipú, Argentina",Bodegas López,-32.96262,-68.78419,http://www.bodegaslopez.com.ar/
"Maipú, Argentina",Bodega Trapiche,-32.97309,-68.74531,http://www.trapiche.com.ar/
"Maipú, Argentina",Bodega - Alandes,-32.96563,-68.74164,http://www.karimmussi.com/
"Maipú, Argentina",Bodega Argentia,-32.96503,-68.77956,http://bodegaargentia.com.ar/
"Maipú, Argentina",Bodega Domiciano,-32.94661,-68.75124,http://www.instagram.com/bodegadomiciano
"Maipú, Argentina",Mendel Wines,-33.02706,-68.85401,http://www.mendel.com.ar/
"Maipú, Argentina",Cecchin Family Winery,-33.00782,-68.80428,https://www.bodegacecchin.com.ar/
"Maipú, Argentina",Bodega Viña el Cerno,-33.00241,-68.74994,http://elcerno.com.ar/
"Maipú, Argentina",Bodega Tempus Alba,-33.00188,-68.75141,http://www.tempusalba.com/
"Maipú, Argentina",Antigal Winery & Estates,-33.0067,-68.80815,http://www.antigal.com/
"Maipú, Argentina",Bodegas Baudron,-32.98555,-68.78077,
"Maipú, Argentina",Vistandes Winery & Lodge,-33.02476,-68.75852,http://vistandes.com/
"Maipú, Argentina",Bodega La Rural - Museo del Vino San Felipe,-32.9566,-68.74477,http://www.bodegalarural.com.ar/
"Maipú, Argentina",Espacio Trapiche,-32.97233,-68.74659,http://www.trapiche.com.ar/
"Maipú, Argentina",Bodega MEVI,-33.00392,-68.74087,http://bodegamevi.com.ar/
"Maipú, Argentina",Catapano Wines,-33.01386,-68.8068,http://www.catapanowines.com/
"Maipú, Argentina",BODEGA 1870 ESENCIA,-33.01627,-68.75905,
"Maipú, Argentina",Bodega Finca Savina,-33.03969,-68.80633,https://www.bodegafincasavina.com/
"Maipú, Argentina",CONALBI GRINBERG Casa Vinicola,-33.0006,-68.80454,http://www.conalbigrinberg.com/
"Maipú, Argentina",Bodega Antigal SA,-33.00663,-68.8091,http://www.antigal.com/
"Maipú, Argentina",Bodega Familia Cassone,-33.02419,-68.85263,http://www.familiacassone.com.ar/
"Maipú, Argentina",Bodega Santa Julia (Zuccardi),-32.96977,-68.56671,http://www.santajulia.com.ar/
"Maipú, Argentina",Bodega Finca Agostino - Winery,-33.1039,-68.67099,http://www.agostinowinegroup.com/
"Maipú, Argentina",Bodega El Enemigo,-33.04443,-68.72412,https://universovigil.com/
"Maipú, Argentina",Otero Ramos Family Winery,-33.00624,-68.83649,http://www.oteroramoswinery.com/
"Maipú, Argentina",Bodega Florio,-33.03158,-68.77732,http://www.bodegaflorio.com.ar/
"Maipú, Argentina",Fecovita Casa Matriz,-32.95731,-68.78584,http://fecovita.com/
"Maipú, Argentina",Bodega Nieto Senetiner,-32.99075,-68.8268,http://www.nietosenetiner.com.ar/
"Maipú, Argentina",Gauchezco,-33.06987,-68.75416,https://gauchezco.com/
"Maipú, Argentina",Martino Wines,-33.02306,-68.85275,http://www.martinowines.com.ar/
"Maipú, Argentina",Bodega Atilio Avena,-33.01487,-68.74017,https://atilioavena.com/wine/
"Maipú, Argentina",Bodega CarinaE,-33.03354,-68.76973,https://linktr.ee/bodegaCarinae
"Maipú, Argentina",Bodega Don Bosco,-32.99279,-68.6816,http://bodegadonbosco.com.ar/
"Maipú, Argentina",Winery and Vineyards Stocco Viani,-33.03021,-68.79755,http://www.stoccodeviani.com.ar/
"Maipú, Argentina",Bodega Ricardo Santos,-33.00887,-68.81278,https://ricardosantos.com/
"Maipú, Argentina",BODEGA ZEMLIA,-32.98901,-68.7731,http://www.bodegazemlia.com/
"Maipú, Argentina",RPB S.A. - Bodega Viejo Viñedo,-32.94854,-68.73083,http://www.rpbwines.com.ar/
"Maipú, Argentina",TRIVENTO,-33.02035,-68.77369,
"Maipú, Argentina",Bodegas Y Viñedos Familia Perulan,-32.95637,-68.76219,
"Maipú, Argentina",Bodega Argento,-33.03942,-68.77843,https://bodegaargento.com/
"Maipú, Argentina",Cava don tulio,-32.97869,-68.82831,http://instagram.com/cavadontulio
"Maipú, Argentina",Finca La Cayetana - Ver Sacrum Wines,-33.01897,-68.83145,
"Maipú, Argentina",Bodega Don Manuel Villafañe,-33.03847,-68.69342,http://www.dmvwines.com/
"Maipú, Argentina",Bodega SinFin,-32.97092,-68.70339,https://www.bodegasinfin.com/bodega-2/
"Maipú, Argentina",Bodega Bombal,-33.04141,-68.81849,https://bodegabombal.com/
"Maipú, Argentina",Bodega La Iride,-33.01962,-68.7278,http://www.lairide.com/
"Maipú, Argentina",Bodega Eclipse,-32.96097,-68.75515,http://www.bodegaeclipse.com.ar/
"Maipú, Argentina",Finca El Paraíso - Bodega Luigi Bosca,-33.04994,-68.68027,https://luigibosca.com/experiencias
"Maipú, Argentina","Bodega Artesanal ""Familia Rodriguez""",-32.99836,-68.69069,
"Godoy Cruz, Argentina",Bodegas CARO SA,-32.91257,-68.84304,https://www.lafite.com/fr/les-domaines/bodegas-caro/
"Godoy Cruz, Argentina",Sposato Family Vineyards Argentina,-32.94997,-68.83513,https://sposatowines.com.ar/
"Godoy Cruz, Argentina",Bodega Escorihuela Gascón,-32.91248,-68.84307,http://www.escorihuelagascon.com.ar/
"Godoy Cruz, Argentina",CASA TANO Bodega Artesanal,-32.93887,-68.84752,https://instagram.com/casa_tano?igshid=ZWQyN2ExYTkwZQ==
"Godoy Cruz, Argentina",Bodega Navarro Correas,-32.92383,-68.81794,http://www.navarrocorreas.com/
"Godoy Cruz, Argentina",Vinería VIEJA BODEGA,-32.91117,-68.87329,
"Godoy Cruz, Argentina",Bodega San Telmo,-32.92911,-68.82535,http://bodegasantelmo.com.ar/
"Godoy Cruz, Argentina",Bodega Vintage,-32.94998,-68.83522,
"Godoy Cruz, Argentina",DIAGEO,-32.92716,-68.81884,http://www.navarrocorreas.com/
"Godoy Cruz, Argentina",Cuatro Fincas winery,-32.91868,-68.84961,https://cuatrofincaswinery.com/contacto/
"Godoy Cruz, Argentina",VINERIA PORRAS,-32.91718,-68.85959,
"Godoy Cruz, Argentina",Andes Growers,-32.90938,-68.84128,https://andesgrowers.com/
"Godoy Cruz, Argentina",LoboNegro Wines,-32.95422,-68.85794,
"Godoy Cruz, Argentina",Pulenta Estate - Oficinas Administrativas,-32.95465,-68.85732,http://www.pulentaestate.com/
"Godoy Cruz, Argentina",Fraccionamiento móvil de vinos y Bag in Box | VINITEC,-32.94181,-68.82881,https://vinitec.com.ar/
"Godoy Cruz, Argentina",Bodega Reginato,-32.9252,-68.81395,
"San Carlos, Argentina",Del Yaucha. VINO ARTESANAL,-33.70528,-69.07714,https://delyaucha.mitiendanube.com/
"San Carlos, Argentina",Restaurante Fatto in Casa by BODEGA GRAZIE MILLE,-33.72667,-69.10697,http://www.vinosgraziemille.com/
"San Carlos, Argentina",Bodega Altocedro,-33.72916,-69.12875,https://karimmussi.com/
"San Carlos, Argentina",Cooperativa Vitivinicola San Carlos Sud Ltda,-33.73031,-69.11549,http://www.sancarlossud.com/
"San Carlos, Argentina",Vinos Appon,-33.74917,-69.11186,
"San Carlos, Argentina",Los Noques Winery,-33.71393,-69.11357,http://losnoques.com/
"San Carlos, Argentina",Bodega Alfa Crux,-33.80294,-69.11829,https://www.instagram.com/alfacruxwines
"San Carlos, Argentina",Terracota Wineland,-33.7487,-69.11701,
"San Carlos, Argentina",Fapes Bodega & Viñedo,-33.72925,-69.11444,
"San Carlos, Argentina",Bodega La Celia,-33.77975,-69.07073,
"San Carlos, Argentina",Bodega artesanal y agroecológica De La Tierrita,-33.78058,-69.05529,
"San Carlos, Argentina",Delator de Sueños,-33.76702,-69.04871,
"San Carlos, Argentina",Finca El Yaima - Bodegas Chandon,-33.78349,-69.06929,
"San Carlos, Argentina",ALTO REAL VIÑEDOS SA San Carlos Mendoza,-33.76407,-69.038,
"San Carlos, Argentina",bodega luna austral,-33.77029,-69.08597,
"San Carlos, Argentina",BODEGA PRODUMEN BOTELLAS- SAN CARLOS,-33.73852,-69.07116,
"San Carlos, Argentina",Viñedos Don Juan,-33.79358,-69.08012,
"San Carlos, Argentina",Bodega Alonso Guerrero,-33.8184,-69.13808,https://shopalonsoguerrerowines.com/
"San Carlos, Argentina",Don Bosco Eugenio Bustos,-33.77549,-69.06126,
"San Carlos, Argentina",Bonetto Fratelli,-33.71447,-69.1158,
"San Carlos, Argentina",Bodega Dal Borgo,-26.01697,-65.977,https://wineobs.com.ar/mro/bodega-dal-borgo
"San Carlos, Argentina",Bodega El Cese,-25.6277,-66.17101,
"San Carlos, Argentina",Bodega Que tal,-25.68767,-66.16841,
"San Carlos, Argentina",Finca Altamira,-33.75451,-69.12321,
"San Carlos, Argentina",ALTAMIRA ESPERANZA SAS,-33.81915,-69.19608,
"San Carlos, Argentina",Jardín de Hormigas - Altos Las Hormigas,-33.79092,-69.16979,https://www.altoslashormigas.com/
"San Carlos, Argentina",Bodega Arca Yaco,-25.86447,-66.04386,
"Tunuyán, Argentina",Winery Black Stone (Lurton),-33.60915,-69.20391,https://linktr.ee/BPNlinktree
"Tunuyán, Argentina",CLAROSCURO BODEGA DE ARTE,-33.64373,-69.19212,https://bodegaclaroscuro.com.ar/
"Tunuyán, Argentina",Bodega Corazón Del Sol,-33.60125,-69.22876,http://www.corazondelsol.com/
"Tunuyán, Argentina",Clos de los Siete,-33.66702,-69.19425,https://www.closdelossiete.com/
"Tunuyán, Argentina",Bodega SuperUco,-33.6035,-69.2287,http://superuco.com/
"Tunuyán, Argentina",Bodega Gimenez Riili,-33.60372,-69.22026,http://www.gimenezriili.com/
"Tunuyán, Argentina",Bodega La Vigilia,-33.60408,-69.22468,https://bodegalavigilia.com/home
"Tunuyán, Argentina",Bodega Monteviejo,-33.66584,-69.23223,https://monteviejo.com.ar/
"Tunuyán, Argentina",Bodega Salentein,-33.49422,-69.24291,http://www.bodegasalentein.com/
"Tunuyán, Argentina",Magia De Uco,-33.61113,-69.18945,http://www.magiadeuco.com/
"Tunuyán, Argentina",Bodega Hinojosa,-33.56912,-69.01691,http://www.bodegahinojosa.com/
"Tunuyán, Argentina",Bodega Familia Zaina,-33.55397,-69.17818,
"Tunuyán, Argentina",Bodega DiamAndes,-33.66707,-69.1944,
"Tunuyán, Argentina",Cooperativa del Vino de Vista Flores,-33.6534,-69.15603,http://www.coopvistaflores.com.ar/
"Tunuyán, Argentina",Bodega BONORA VIÑEDOS,-33.65322,-69.14682,
"Tunuyán, Argentina",Viticola Los Parrales S.A.,-33.64623,-69.15363,
"Tunuyán, Argentina",Vinícola Los Parrales,-33.65224,-69.15713,
"Tunuyán, Argentina",Bodega Albaflor,-33.63764,-69.19199,http://www.albaflor.com.ar/
"Tunuyán, Argentina",Finca La Tranquila,-33.65287,-69.19308,
"Tunuyán, Argentina",FECOVITA,-33.66671,-69.1286,
"Tunuyán, Argentina",Bodegas Esmeralda (Vista Flores),-33.67071,-69.1614,http://www.bodegasesmeralda.com.ar/
"Tunuyán, Argentina",Finca de los Padrillos,-33.66762,-69.16847,http://www.instagram.com/fincadelospadrillos
"Tunuyán, Argentina",Bodega Garage EL VISTAFLORINO,-33.61001,-69.18154,
"Tunuyán, Argentina",Bodega J.C.Gaffner,-33.63549,-69.19362,
"Tunuyán, Argentina",Bodega Enzo Bianchi,-33.60749,-69.18102,http://www.bodegasbianchi.com.ar/
"Tunuyán, Argentina",Bodega Cuvelier Los Andes,-33.66608,-69.22236,http://cuvelierlosandes.com/
"Tunuyán, Argentina",Bodega Estancia Mendoza,-33.67823,-69.12537,http://estanciamendoza.com.ar/es/
"Tunuyán, Argentina",Winemaker Laureano Gomez,-33.58953,-69.07745,http://bodegagarage.com.ar/
"Tunuyán, Argentina",Bodega ALTOS DE ALTAMIRA,-33.63765,-69.19198,
"Tunuyán, Argentina",La Coste de los Andes,-33.59961,-69.27888,
"Tunuyán, Argentina",Bodega Rolland,-33.66617,-69.25872,http://www.bodegarolland.com/
"Tunuyán, Argentina",Bodega Flecha de los Andes,-33.66456,-69.24517,http://www.flechasdelosandes.com/
"Tunuyán, Argentina",Bodega The Vines,-33.58833,-69.20796,
"Tunuyán, Argentina",SoloContigo Winery,-33.60168,-69.2298,http://www.solocontigowines.com/
"Tunuyán, Argentina",Bodega Diamandes,-33.65901,-69.23625,
"Tunuyán, Argentina",Clos de Los Siete,-33.66991,-69.21821,
"Tunuyán, Argentina",vinyes ocults,-33.5421,-69.02942,
"Tunuyán, Argentina",Vinos de La Luz - Argentina,-33.5614,-69.1488,http://www.vinosdelaluz.com/
"Tunuyán, Argentina",Bodega Finca del Nunca Jamas,-33.60466,-69.12325,http://www.fincanuncajamas.com/
"Tunuyán, Argentina",Bodega y Viñedos Doña Elvira,-33.57443,-69.02,
"Tunuyán, Argentina",Pepper Tree Vineyards,-33.48987,-69.21507,
"Tunuyán, Argentina",Burman,-33.59226,-69.08218,
"Tunuyán, Argentina",Enrique Vollmer winery,-33.67303,-69.09124,
"Tunuyán, Argentina",Bodega Antucura,-33.66436,-69.13493,
"Tunuyán, Argentina",Bodega Siesta en el Tahuan,-33.66394,-69.16761,https://www.instagram.com/siestaeneltahuan/
"Tunuyán, Argentina",Bodega Portillo,-33.50082,-69.24053,
"Tunuyán, Argentina",Salentein winery and inn Salentin,-33.49409,-69.24288,http://www.bodegasalentein.com/es/posada/acerca.html
"Tunuyán, Argentina",Tapiz San Pablo,-33.47471,-69.27079,http://www.bodega-tapiz.com.ar/
"Tunuyán, Argentina",Bodega Boutique Pócima,-33.52421,-69.28493,
"Paraje Altamira, Argentina",Finca La Igriega,-33.74352,-69.15445,http://www.laigriegawines.com/
"Paraje Altamira, Argentina",Bodega Zuccardi Valle de Uco,-33.77236,-69.15663,http://www.zuccardiwines.com/
"Paraje Altamira, Argentina",TERRACOTA WINELAND,-33.74374,-69.12248,http://www.descendientewine.com/
"Paraje Altamira, Argentina",Finca Beth,-33.76057,-69.17791,
"Paraje Altamira, Argentina",BODEGA ARTESANAL LEMOS & SUAREZ.FINCA SEIS MANZANOS,-33.75778,-69.14018,https://instagram.com/bodegaartesanallemosysuarez?utm_medium=copy_link
"Paraje Altamira, Argentina","FINCA SUAREZ, PERICO",-33.76964,-69.14849,http://www.fincasuarez.com.ar/
"Paraje Altamira, Argentina",Finca Altamira Bodega Argento,-33.75694,-69.15569,https://bodegaargento.com/
"Paraje Altamira, Argentina",Finca Las Glicinas,-33.74111,-69.16264,http://www.fincalasglicinas.com/
"Paraje Altamira, Argentina",ROCAMADRE,-33.77131,-69.16965,http://www.rocamadre.com.ar/
"Paraje Altamira, Argentina",Finca Altamira - Furlotti,-33.74839,-69.17001,https://www.familiafurlotti.com/
"Tupungato, Argentina",Bodega La Azul,-33.46928,-69.22089,http://www.bodegalaazul.com/
"Tupungato, Argentina",Bodega DESQUICIADO,-33.35438,-69.14992,https://www.desquiciado.com/
"Tupungato, Argentina",Casa Andina de Vinos de Altura,-33.35439,-69.14985,https://instagram.com/casaandina.tupungato?igshid=MzRlODBiNWFlZA==
"Tupungato, Argentina",Vinoteca De Bodega Familiar Julio Cesar Coletto,-33.37606,-69.14479,
"Tupungato, Argentina",Bodega Picada de Tupungato,-33.35668,-69.14929,
"Tupungato, Argentina",Uruco Wines,-33.36563,-69.15509,http://www.urucowines.com/
"Tupungato, Argentina",Bodega Nonno Coletto,-33.36737,-69.14432,
"Tupungato, Argentina","Bodega Familia Furlan ""Tupungato""",-33.35644,-69.15019,http://www.familia-furlan.com/
"Tupungato, Argentina",Michelini i Mufatto Cantina,-33.38423,-69.13819,
"Tupungato, Argentina",Bodega del Tupun,-33.34846,-69.15068,
"Tupungato, Argentina",Domaine Bousquet,-33.43283,-69.19237,https://domainebousquet.com/
"Tupungato, Argentina",Bodega y Viñedos Antonio Pelegrina,-33.33795,-69.15465,
"Tupungato, Argentina",Bodega Y Viñedos La Riojana,-33.3378,-69.15592,
"Tupungato, Argentina",Oficina Delegada,-33.36548,-69.13422,
"Tupungato, Argentina",Bodega La Florita,-33.36005,-69.17228,http://www.laflorita.com/
"Tupungato, Argentina",Bodega Andeluna,-33.4555,-69.21215,http://www.andeluna.com.ar/
"Tupungato, Argentina",Bodega Paso a Paso Wines,-33.34797,-69.17642,https://pasoapasowines.com.ar/
"Tupungato, Argentina",Bodega Raffy Familia Zanchetta,-33.39184,-69.18293,https://bodega-raffy-zanchetta.com/
"Tupungato, Argentina",Huentala Wines,-33.39781,-69.24984,http://www.huentalawines.com/
"Tupungato, Argentina",Zorzal Wines,-33.42135,-69.2527,https://zorzalwines.com/
"Tupungato, Argentina",RUTINI WINES,-33.4523,-69.20876,http://www.rutiniwines.com/
"Tupungato, Argentina",Bodega Atamisque SA,-33.28119,-69.14331,http://bodegaatamisque.com/
"Tupungato, Argentina",Huentala Wines,-33.40962,-69.24848,http://www.huentalawines.com/
"Tupungato, Argentina",Finca Adelma vinos del alma,-33.46808,-69.21795,http://www.fincaadelma.com.ar/
"Tupungato, Argentina",Bodega Familia Giaquinta,-33.37597,-69.09798,http://www.familiagiaquinta.com/
"Tupungato, Argentina",Bodega Altus & Gualtallary,-33.38804,-69.19127,http://www.gualtallarywines.com/
"Tupungato, Argentina",Masi Tupungato,-33.38352,-69.06413,http://www.masitupungato.com/
"Tupungato, Argentina",Bodega Jean Bousquet,-33.43898,-69.1996,http://linktr.ee/BodegaJeanBousquet
"Tupungato, Argentina",Finca Ambrosia,-33.40018,-69.21037,http://www.fincaambrosia.com/
"Tupungato, Argentina",FINCA SOPHENIA,-33.46182,-69.21685,http://www.sophenia.com.ar/
"Tupungato, Argentina",Bodega Valle Escondido,-33.32936,-69.16409,
"Tupungato, Argentina",Bodega Don Carlos,-33.42144,-69.14298,http://www.fincadoncarlos.com/
"Tupungato, Argentina",Finca Blousson,-33.16324,-69.26521,https://www.fincablousson.com/
"Tupungato, Argentina",Alba en los Andes,-33.39964,-69.17124,https://www.albaenlosandes.com/
"Rivadavia, Argentina",Bodega Luis Segundo Correas Sa,-33.17074,-68.57801,
"Rivadavia, Argentina",Bodega Medrano Town,-33.17752,-68.61131,
"Rivadavia, Argentina",Bodega Merced del Estero,-31.53224,-68.63405,http://www.merceddelestero.com.ar/
"Rivadavia, Argentina",Aguma Casa Vinícola,-31.52468,-68.62571,http://www.agumacasavinicola.com/
"Rivadavia, Argentina",Bodega Amplitud,-31.52992,-68.59162,
"Rivadavia, Argentina",Bodega La Pia - Luis Durigutti,-33.17921,-68.46753,
"Rivadavia, Argentina",Bodega Llaver Sa,-33.19221,-68.46474,https://www.bodegallaver.com.ar/
"Rivadavia, Argentina",Bodega Tittarelli Wines,-33.25607,-68.50634,http://tittarelli.com.ar/
"Junín, Argentina",Bodega Lino Puppato - Bodega Don Quinto,-33.16028,-68.61,
"Junín, Argentina",Bodega Tamascal,-33.17184,-68.64126,http://www.tamascal.com/
"Junín, Argentina",Bodega Aleph Wine Co,-33.10507,-68.55216,
"Junín, Argentina",Bodega y Viñedos Niven,-33.12436,-68.4273,https://www.facebook.com/Pala-Coraz%C3%B3n-Oficial-Bodega-y-vi%C3%B1edos-Niven-961906723888471/
"Junín, Argentina",Establecimiento Vitivinícola Raíces de Junín,-33.14929,-68.45991,
"Junín, Argentina",Bodega y Viñedos Santos Lugares,-33.15783,-68.44005,http://santoslugareswines.com/
"Junín, Argentina",BODEGA MUNDO NUEVO,-33.16284,-68.44129,http://www.bodegamundonuevo.com.ar/
"Junín, Argentina",Bodega Reserva De Los Andes,-33.12732,-68.58905,http://www.reservadelosandes.com/
"San Rafael, Argentina",Bodega La Abeja,-34.60757,-68.35112,http://www.bodegalaabeja.com.ar/
"San Rafael, Argentina",Bodega Labiano,-34.68689,-68.38462,http://www.bodegalabiano.com/labiano/
"San Rafael, Argentina",Bodegas Bianchi,-34.5828,-68.42338,http://www.bodegasbianchi.com.ar/
"San Rafael, Argentina",BODEGAS JEAN RIVIER,-34.60683,-68.35814,http://www.jeanrivier.com/
"San Rafael, Argentina",BODEGA ALFREDO ROCA,-34.67627,-68.24236,
"San Rafael, Argentina",Old Winery,-34.69509,-68.38684,https://www.bodegaserra.com.ar/
"San Rafael, Argentina",Bodega 1920,-34.68208,-68.38323,https://m.facebook.com/bodega1920/?ref=bookmarks
"San Rafael, Argentina",Tornaghi Winery and Vineyards,-34.60724,-68.31402,http://www.tornaghi.com.ar/
"San Rafael, Argentina",BODEGA TERRA LOMBARDA,-34.69193,-68.3863,
"San Rafael, Argentina",Bodega Finca El Nevado,-34.6688,-68.37862,https://fincaelnevado.com/
"San Rafael, Argentina",Bodega Boutique Ibarra,-34.6848,-68.38406,http://www.bodegaibarra.com.ar/
"San Rafael, Argentina",Finca Y Bodega Rubio,-34.70787,-68.39131,https://m.facebook.com/pages/category/Food---Beverage-Company/FINCA-RUBIO-341869122649138/?locale2=es_LA
"San Rafael, Argentina",Bodega Simonassi Lyon,-34.67678,-68.32089,http://www.bodegasimonassilyon.com/
"San Rafael, Argentina",Bodega Murville,-34.59306,-68.39924,http://www.murville.com/
"San Rafael, Argentina",Bodega Bournett,-34.57598,-68.25199,http://www.bournett.com.ar/
"San Rafael, Argentina",Bodega Iaccarini,-34.53253,-68.42431,http://www.bodegaiaccarini.com.ar/
"San Rafael, Argentina",Bodega Alto Limay SA,-34.59689,-68.36826,http://www.altolimaywines.com.ar/
"San Rafael, Argentina","Bodega y Viñedos ""Finca Don Vicente""",-34.63325,-68.41903,
"San Rafael, Argentina",Bodega Artesanal Esteban Mur,-34.61309,-68.37348,
"San Rafael, Argentina",Bodegas Garbin S.A.,-34.59939,-68.33214,http://garbinestate.com/
"San Rafael, Argentina",Bodega Finca Ivonne,-34.90512,-67.72747,http://sites.google.com/view/fincaivonne/inicio
"San Rafael, Argentina",Bodega Familia Martinez Croce,-34.892,-67.74612,
"San Rafael, Argentina",Bodega Finca Cuadro Benegas S.A,-34.64528,-68.42002,http://www.fincacuadrobenegas.com.ar/
"San Rafael, Argentina",La Mansa Wine Estates,-34.63156,-68.218,https://lamansa.com.ar/
"San Rafael, Argentina",Andes Wineries,-34.60798,-68.31461,
"San Rafael, Argentina",Bodega Chayee Bourras,-34.68479,-68.42575,http://www.bodegabourras.com.ar/
"San Rafael, Argentina",Bodega Vintage S.A,-34.59939,-68.32846,
"San Rafael, Argentina",Giaroli Brothers Winery and Vineyards.,-34.59855,-68.37026,
"San Rafael, Argentina",Cooperativa Sierra Pintada,-34.59553,-68.32794,
"San Rafael, Argentina",FOW - Bodega y Restó,-34.65027,-68.40802,http://linktr.ee/fowines
"San Rafael, Argentina",Finca y Bodega LIMBO,-34.69448,-68.41381,https://bodegalimbo.com.ar/
"San Rafael, Argentina",Bodega Goyenechea,-34.82133,-67.95722,
"San Rafael, Argentina",Vinos Moro,-34.62478,-68.34762,
"San Rafael, Argentina",Bodega Lávaque S.A.,-34.68581,-68.23981,
"San Rafael, Argentina",La Máxima Finca & Granja,-34.65134,-68.22226,http://instagram.com/zaratustravinos
"San Rafael, Argentina",Bodega La Fuente Del Vino,-34.68643,-68.38462,
"San Rafael, Argentina",Finca Intimayu S.A.,-34.62191,-68.37734,
"San Rafael, Argentina",Bodega La Rosa,-34.63092,-68.28449,
"San Rafael, Argentina",Algodon Wine Estates,-34.64636,-68.46217,http://www.algodonwineestates.com/
"San Rafael, Argentina",Totals Bebidas SA,-34.67421,-68.37999,http://www.totals.com.ar/
"San Rafael, Argentina",Las Payas,-34.61748,-68.39741,http://www.laspayas.ar/
"San Rafael, Argentina",Vino Artesanal Sueños,-34.55718,-68.28787,
"San Rafael, Argentina",Estancia De Mackenzie,-34.6574,-68.43345,https://www.facebook.com/estanciademackenzie/
"San Rafael, Argentina",Espacio Funckenhausen,-34.57811,-68.49031,http://www.funckenhausen.com/
"San Rafael, Argentina",Bodega Grand States,-34.59806,-68.33118,https://garbinestate.com/
"San Rafael, Argentina",Bodega La Regalona,-34.58719,-68.38598,
"San Rafael, Argentina",Vega Fotografías (@DegusTANDOSanRafael),-34.61352,-68.32886,https://www.instagram.com/degustandosanrafael
"San Rafael, Argentina",Bodega Bombal y Aldao - Bodega de vinos Premium,-34.65658,-68.23925,http://www.bombalyaldao.com.ar/
"San Rafael, Argentina",Bodega Marco Zunino,-34.74908,-68.10304,http://www.bodegamarcozunino.com/
"San Rafael, Argentina",Vino Casero Finca Senés,-34.61416,-68.34366,http://www.facebook.com/jorge.egeamoreno
"San Rafael, Argentina",Bodega Pietrelli,-34.56511,-68.30718,
"San Rafael, Argentina",Bodega Etnia SA,-34.61289,-68.33906,https://bodegaetnia.com/
"San Rafael, Argentina",Indalo Vino Artesanal,-34.68484,-68.31238,
"San Rafael, Argentina",Viñas Del Piave,-34.58277,-68.35182,http://www.fincasardi.com.ar/
"San Rafael, Argentina",Bodega Mumm,-34.59794,-68.4179,
"San Rafael, Argentina",La Ernestina Bodega & Finca,-34.63457,-68.41405,
"Neusiedlersee, Austria",Weingut Claus Preisinger,47.90815,16.91032,http://www.clauspreisinger.at/
"Neusiedlersee, Austria",Judith Beck GmbH,47.89041,16.92729,http://www.weingut-beck.at/
"Neusiedlersee, Austria",Weingut Scheiblhofer - THE WINE,47.78022,17.03347,http://www.scheiblhofer.at/
"Neusiedlersee, Austria",Weingut Umathum,47.8316,16.93408,https://www.umathum.at/
"Neusiedlersee, Austria",Weingut Salzl Seewinkelhof,47.76944,16.80518,
"Neusiedlersee, Austria",Weingut Heinrich GmbH,47.89585,16.92381,http://heinrich.at/
"Neusiedlersee, Austria",Nittnaus Hans und Anita,47.89708,16.91095,http://www.nittnaus.at/
"Neusiedlersee, Austria",Weingut Paul Achs,47.90194,16.91259,http://www.paul-achs.at/
"Neusiedlersee, Austria",Weingut Wein aus der Hölle,47.81859,16.79777,http://www.hoelle1.com/
"Neusiedlersee, Austria",Bio-Weingut & Buschenschank PayerPayer,47.85136,16.83987,https://www.payerpayer.at/
"Neusiedlersee, Austria",Weingut Königshofer,47.94693,16.8457,https://www.koenigshofer-wein.at/
"Neusiedlersee, Austria",Weingut Fuhrmann,47.85666,16.83388,https://fuhrmannwein.at/pages/kontaktimpressum.php
"Neusiedlersee, Austria",Weingut Schaller vom See,47.85044,16.84052,https://www.schallervomsee.at/
"Neusiedlersee, Austria","Weingut Christoph Hess- nachhaltige Weiß-,Rosé- und Rotweine aus Neusiedl am See, Burgenland",47.9495,16.84154,http://www.christophhess.at/
"Neusiedlersee, Austria",Neusiedlersee DAC,47.94625,16.84775,https://neusiedlersee-dac.com/kontakt/
"Neusiedlersee, Austria",Weingut & Buschenschenke Preschitz,47.94463,16.85058,http://www.preschitz.at/
"Neusiedlersee, Austria",Weingut Zur Dankbarkeit,47.85281,16.84047,https://www.weingutzurdankbarkeit.at/
"Neusiedlersee, Austria",BIO-WEINGUT ETTL,47.85694,16.83388,http://www.bioweingut-ettl.at/
"Neusiedlersee, Austria",Seegut Lentsch,47.85638,16.84089,https://www.seegut-lentsch.com/
"Neusiedlersee, Austria",Weingut Jost,47.85918,16.83271,http://www.jost-strudler.at/
"Neusiedlersee, Austria",Weingut Hans Haider,47.85102,16.84139,http://hans-haider.at/
"Neusiedlersee, Austria",Weingut Brüder Schmidt,47.85028,16.83767,https://www.brueder-schmidt.at/
"Neusiedlersee, Austria",Weingut Hannes Reeh,47.77409,17.04304,http://www.hannesreeh.at/
"Neusiedlersee, Austria",Weingut Renner & rennersistas,47.90586,16.89703,http://www.rennerundsistas.at/
"Neusiedlersee, Austria",Christian Tschida,47.76278,16.7948,http://christiantschida.at/
"Neusiedlersee, Austria",Weingut Stadler,47.86818,16.96998,https://www.weingut-stadler.at/
"Neusiedlersee, Austria",Weingut Heurigenschenke Urbanikeller Pillinger,47.86934,16.94451,https://www.weingut-pillinger.at/
"Neusiedlersee, Austria",Weingut Werner Achs GmbH,47.90584,16.91366,http://www.wernerachs.at/
"Neusiedlersee, Austria",Weingut & Gästehaus Dombi-Weiss,47.85486,16.83615,https://www.dombi-weiss.com/
"Neusiedlersee, Austria",Weingut Birtoc,47.85512,16.8349,http://fuhrmannwein.at/
"Neusiedlersee, Austria",Weingut Friedrich,47.92395,16.87166,http://www.weingut-friedrich.at/
"Neusiedlersee, Austria",Weingut Hans Tschida,47.76749,16.80169,https://www.angerhof-tschida.at/
"Neusiedlersee, Austria",Kracher Fine Wine GmbH,47.76114,16.80668,
"Neusiedlersee, Austria",Bioweingut WEISS Beate u Erik,47.89744,16.90698,http://www.weiss-weine.at/
"Neusiedlersee, Austria",Weinbau Müllner,47.95002,16.8402,https://www.weinbau-muellner.com/
"Neusiedlersee, Austria",Allacher Vinum Pannonia,47.90318,16.92304,https://www.allacher.com/
"Neusiedlersee, Austria",Weingut Moser GesnbR,47.92328,16.87395,http://www.moser-wein.at/
"Neusiedlersee, Austria",Artisan Wines,47.87004,16.97402,http://www.artisanwines.at/
"Neusiedlersee, Austria",Weingut Heiling,47.85498,16.83826,http://www.weingut-heiling.at/
"Neusiedlersee, Austria",Weingut Helmut Preisinger,47.90271,16.91199,http://www.weingut-preisinger.at/
"Neusiedlersee, Austria",Weingut Riepl,47.8991,16.90512,http://www.weingut-riepl.at/shop
"Neusiedlersee, Austria",Carriage rides - Winery - Winery Gerhard Gangl,47.75918,16.79689,http://www.kutschen-gangl.at/
"Neusiedlersee, Austria",Sektkellerei Szigeti,47.89291,16.91033,https://www.szigeti.at/
"Neusiedlersee, Austria",Tschida Weine,47.69639,16.90403,http://www.weingutjoseftschida.at/
"Neusiedlersee, Austria",Weingut Willi Opitz,47.75599,16.80045,http://www.willi-opitz.at/
"Neusiedlersee, Austria",Weingut Kroiss Norbert,47.76545,16.80443,http://www.kroiss-weingut.at/
"Neusiedlersee, Austria",Weingut Salzl,47.76791,16.80256,http://www.salzlwein.at/
"Eisenberg, Austria",WEINBAU - WALTER,47.10451,16.45222,http://www.weinbau-walter.at/
"Eisenberg, Austria",Weingut Poller - Heurigenrestaurant,47.13683,16.43564,http://www.weingut-poller.at/
"Eisenberg, Austria",Weingut Fam. Joszt,47.03636,16.34105,
"Eisenberg, Austria",Viticulture Uwe Schiefer,47.23405,16.34845,http://www.weinbau-schiefer.at/
"Eisenberg, Austria",Uhudlerweinbau Kaiser,47.01441,16.45625,http://www.heiligenbrunn.at/ort/buschenschank-fam-kaiser/
"Eisenberg, Austria",WeinGut Gebharter / Der Mikrowinzer,47.09647,16.44862,
"Eisenberg, Austria",Groszer Wein Gmbh,47.21641,16.40438,https://groszerwein.at/
"Eisenberg, Austria",UHUDLER Weinbau Franz u Maria LENDL,47.01677,16.45162,
"Eisenberg, Austria",Weingut und Buschenschank GROSZ,47.08632,16.45017,http://www.weingut-grosz.at/
"Eisenberg, Austria",Weingut Rennhofer,47.19047,16.40793,http://www.weingut-rennhofer.com/
"Eisenberg, Austria",Weine Thom Wachter,47.19195,16.41131,http://www.thomwachter.at/
"Eisenberg, Austria",Weingut Polczer,47.18014,16.42248,http://www.polczer.at/
"Eisenberg, Austria",Weingut Krutzler,47.17212,16.42755,https://krutzler.at/
"Eisenberg, Austria",Herbert Weber,47.19189,16.40817,http://www.weber.eisenberg.at/
"Eisenberg, Austria",WEINGUT KOPFENSTEINER,47.16386,16.44887,http://www.kopfensteiner.at/
"Eisenberg, Austria",Weingut Wachter - Wiesler,47.17108,16.42556,http://www.wachter-wiesler.at/
"Eisenberg, Austria",DAC Eisenberg,47.18989,16.4102,http://www.eisenberg-dac.eu/
"Eisenberg, Austria",Weingut Straka,47.30163,16.44349,http://www.weinbau-straka.at/
"Eisenberg, Austria",BIO Weingut Reiger,47.19172,16.40974,http://www.reiger.cc/
"Eisenberg, Austria",Bioweinbau Herist,47.3087,16.44023,
"Eisenberg, Austria",Uhudler Frizzante,46.94053,16.1231,https://www.uhudlerland.at/
"Eisenberg, Austria",Lakovits Weine,47.10365,16.45161,http://www.lakovits-weine.at/
"Eisenberg, Austria",Weingütchen Simon,46.96212,16.10664,http://weinguetchen-simon.at/
"Eisenberg, Austria",Weingut Arkadenhof Mandl-Brunner,47.3055,16.44717,http://www.arkadenhofmandl.at/
"Eisenberg, Austria",Weinbau Ronny Unger,47.24017,16.32232,http://www.uhudler.eu/
"Eisenberg, Austria",Weingut Stubits,47.14973,16.3815,http://www.stubits.at/
"Eisenberg, Austria",Weinbau Kurta,47.08671,16.45413,
"Eisenberg, Austria",Weinhof Oscar Szemes & Kosthaus 1814,47.37056,16.1244,http://www.szemes.at/
"Eisenberg, Austria",Uhudler Fam. Karner,47.0365,16.39329,http://karner-uhudler.at/
"Eisenberg, Austria",Weingut Jalits,47.19661,16.37616,http://www.jalits.at/
"Eisenberg, Austria",StephanO DAS-WEIN-GUT,47.16803,16.43452,http://www.stephano.at/
"Eisenberg, Austria",Weinbau Rabold,47.19092,16.40464,http://weinbau-rabold.at/
"Eisenberg, Austria",Weingut Stubits,47.19169,16.41463,
"Eisenberg, Austria","Weingut Schützenhof - Markus Faulhammer, Deutsch Schützen",47.16643,16.42909,http://www.weingut-schuetzenhof.at/
"Eisenberg, Austria",Weingut Sagmeister,47.19539,16.40102,http://www.weingutsagmeister.at/kontakt-und-presse.html
"Eisenberg, Austria",Weingut WANGER,47.30249,16.44923,http://www.weingut-wanger.at/
"Eisenberg, Austria",Ferienwohnung & Weingut Rosner Unger / Schützener Berg,47.16966,16.4223,https://schuetzenerberg.at/
"Eisenberg, Austria",Wein Herczeg,47.07567,16.45369,http://www.weinherczeg.com/
"Eisenberg, Austria",Weinbau Kern,47.30225,16.43784,http://www.weinbau-kern.at/
"Eisenberg, Austria",Weingut MITTL,47.13874,16.41348,http://mittl.at/
"Eisenberg, Austria",Uhudler Berzkovics,47.07645,16.27052,https://uhudler-burgenland.at/
"Eisenberg, Austria",Karl Trummer,47.17057,16.16206,https://www.fruchtsaft-trummer.at/
"Eisenberg, Austria",Weinbau Fam. Partl,47.01294,16.45747,http://www.heiligenbrunn.at/ort/weinbau-fam-partl/
"Eisenberg, Austria",Uhudler-Weinbau DUNST,47.0832,16.45961,http://www.uhudler-dunst.at/
"Eisenberg, Austria",Heurigenschenke Zum Himmelsreich & WeInbau STU Likörerzeugung,47.00402,16.25837,
"Eisenberg, Austria",Weingut Wallner,47.16929,16.42189,http://www.wallnerwein.at/
"Eisenberg, Austria",Uhudlerviertl - Hochkogel,47.02073,16.22839,http://www.eltendorf.at/wanderwege.html
"Leithaberg, Austria",Weingut Kugler Vinum Saxum,47.802,16.60676,https://www.kuglerwein.at/
"Leithaberg, Austria",Weingut Esterhazy,47.82118,16.54411,https://www.esterhazywein.at/
"Leithaberg, Austria",Leo Hillinger GmbH,47.96382,16.78249,https://www.leo-hillinger.com/
"Leithaberg, Austria",Weingut Prieler,47.85446,16.63095,http://www.prieler.at/
"Leithaberg, Austria",Weingut Rauchbauer,47.85581,16.55331,http://www.weingut-rauchbauer.at/
"Leithaberg, Austria",Weingut Kollwentz,47.82968,16.47999,https://www.kollwentz.at/
"Leithaberg, Austria",Weingut Lichtenberger Gonzalez,47.94254,16.73567,http://www.lichtenbergergonzalez.at/
"Leithaberg, Austria",Weingut Lentsch Donnerskirchen – Pinots vom Leithaberg,47.89869,16.64001,https://www.weingut-lentsch.at/
"Leithaberg, Austria",Weingut Kirchknopf,47.8394,16.50155,https://www.kirchknopf.at/
"Leithaberg, Austria",Weingut Markus Altenburger,47.96048,16.79666,http://www.markusaltenburger.com/
"Leithaberg, Austria",Weingut Kaiser,47.83689,16.50352,http://www.winzerschloessl.at/
"Leithaberg, Austria",Weingut Franz Pasler,47.95985,16.79398,http://www.franzpasler.at/
"Leithaberg, Austria",Weingut Höpler,47.94094,16.725,http://www.hoepler.at/
"Leithaberg, Austria",Weingut EHE Krauscher,47.83317,16.48002,https://www.krauscher.at/
"Leithaberg, Austria",Weingut Sommer,47.89673,16.64434,http://www.weingut-sommer.at/
"Leithaberg, Austria",Weingut Liegenfeld,47.89674,16.64442,http://www.liegenfeld.at/
"Leithaberg, Austria",Weingut Rudolf Kiss,47.96502,16.79873,http://weingut-rudolf-kiss.at/
"Leithaberg, Austria",Remushof Jagschitz,47.83254,16.62318,http://www.remushof.at/
"Leithaberg, Austria",Weingut Stefan Zehetbauer,47.85057,16.62407,https://www.zehetbauerwein.at/
"Leithaberg, Austria",Weingut Wagentristl,47.8292,16.48151,http://www.wagentristl.com/
"Leithaberg, Austria",Weingut MAD,47.83235,16.66774,https://www.weingut-mad.at/
"Leithaberg, Austria",Weingut & Gästehaus zum Seeblick - Doris & Karl Sattler,47.96224,16.79115,https://www.sattler-seeblick.at/
"Leithaberg, Austria",Weingut Erwin Tinhof,47.81396,16.54907,http://www.tinhof.at/
"Leithaberg, Austria",Weingut Nehrer,47.85439,16.55047,http://www.nehrer.co.at/
"Leithaberg, Austria",Weingut LEBERL,47.83101,16.48198,http://www.leberl.at/
"Leithaberg, Austria",Weingut Franz Schindler,47.75476,16.66532,https://www.weingut-schindler.at/
"Leithaberg, Austria",Weingut Kiss,47.96079,16.79675,https://www.weingut-kiss.eu/
"Leithaberg, Austria",Weinbau Welkovits Eva,47.77021,16.51804,http://www.welkovits.at/
"Leithaberg, Austria",Weingut Hermann Fink,47.83126,16.48158,http://www.hermann-fink.at/
"Leithaberg, Austria",Weingut Grenzhof-Fiedler,47.74784,16.66149,http://www.grenzhof-fiedler.at/
"Leithaberg, Austria",Winzerhof Kiss,47.96171,16.7963,http://www.winzerhof-kiss.at/
"Leithaberg, Austria",Velich Roland GmbH,47.83427,16.48228,http://www.moric.at/
"Leithaberg, Austria",Weingut Martin Reinfeld,47.8512,16.62564,http://www.martinreinfeld.at/
"Leithaberg, Austria",The Fabulous Winery,47.7559,16.66661,http://www.fab.wine/
"Leithaberg, Austria",Weingut Michael Wind,47.80479,16.60542,http://www.weingut-wind.com/
"Leithaberg, Austria",Weingut Georg Wind,47.80371,16.61387,http://www.weingut-georg-wind.at/
"Leithaberg, Austria",Gut Oggau,47.83155,16.66538,http://www.gutoggau.com/
"Leithaberg, Austria",Agerlhof,47.95974,16.79166,http://www.agerlhof.at/
"Leithaberg, Austria",Weingut & Straußenfarm Wimmer,47.83169,16.66445,https://www.weingut-wimmer.com/
"Leithaberg, Austria",Weingut Gmeiner,47.91237,16.70006,http://www.weingut-gmeiner.at/
"Leithaberg, Austria",Buschenschank- Gästezimmer- Weingut FABIAN,47.83145,16.66208,http://www.weingut-fabian.at/
"Leithaberg, Austria",Weingut Stefan Muntner,47.91464,16.69429,http://www.muntner.at/
"Leithaberg, Austria",Bioweingut Edelhof,47.95897,16.79016,http://www.bioweingut-edelhof.at/
"Leithaberg, Austria",Winzerhof Lentsch,47.9605,16.7965,
"Leithaberg, Austria",SCHNEPFENHOF Gasthaus & Weingut,47.96439,16.79339,http://www.schnepfenhof.at
"Leithaberg, Austria",Weinhof Leidl-Putz,47.90934,16.69399,http://www.leidl-putz.at/
"Leithaberg, Austria",Familienweingut Birgit Braunstein,47.91397,16.6941,https://www.weingut-braunstein.at/
"Leithaberg, Austria",Martin Pasler Winery,47.96306,16.80084,https://www.pasler.com/
"Leithaberg, Austria",Weinhaus OTS,47.91828,16.69297,http://www.weinhaus-ots.at/
"Leithaberg, Austria",Weinhaus Schüller,47.91645,16.68919,http://www.weinhaus-schueller.at/
"Leithaberg, Austria",Johannes Steurer HST,47.95581,16.79071,https://www.hannessteurer.at/
"Leithaberg, Austria",Christian Rainprecht,47.83214,16.66568,http://www.rainprecht.at/
"Leithaberg, Austria",Weinhaus Hannes Haiden,47.83252,16.65963,https://www.weinhaushaiden.at/
"Leithaberg, Austria",Weingut Schruiff,47.83101,16.61957,http://schruiff.at/
"Leithaberg, Austria",Weingut Tinhof,47.85473,16.55065,http://www.seyberlaid.at/
"Leithaberg, Austria",Helden der Weinberge - Lehmgrube,47.76286,16.66688,
"Leithaberg, Austria",Weingut Fleck,47.8029,16.60443,http://www.fleck-wein.at/
"Leithaberg, Austria",Weingut Hermann und Gerti Wind,47.7993,16.60405,http://wernerwind.wixsite.com/weingut-wind
"Leithaberg, Austria",Michael Schuster,47.83162,16.66023,
"Leithaberg, Austria",robitza | wein,47.83176,16.62531,http://www.robitza-wein.at/
"Leithaberg, Austria",Kloster am Spitz Restaurant,47.91999,16.67718,https://thomasschwarz.at/
"Leithaberg, Austria",Weingut Schneider,47.80205,16.61931,http://www.weingut-schneider.at/
"Leithaberg, Austria",Weingut Haussatzhof Sonja Wind,47.80879,16.60643,
"Leithaberg, Austria",Weingut Markus Schuller,47.83422,16.66996,http://www.schullerwein.at/
"Ruster Ausbruch, Austria","Gabriel winery, Rust",47.80161,16.6766,http://www.weingut-gabriel.at/
"Ruster Ausbruch, Austria",Weingut Kraft aus Rust,47.80096,16.67368,http://www.kraftausrust.at/
"Ruster Ausbruch, Austria",Weingut & Buschenschank Leitgeb,47.79998,16.67309,http://www.leitgeb-rust.at/
"Ruster Ausbruch, Austria",Weinakademie Österreich GmbH,47.80227,16.67694,https://www.weinakademie.at/
"Ruster Ausbruch, Austria",Weingut Feiler-Artinger,47.80116,16.67467,http://www.feiler-artinger.at/
"Ruster Ausbruch, Austria",Weingut Georg Seiler,47.80081,16.67348,https://www.weingut-seiler.at/
"Ruster Ausbruch, Austria",Weingut Triebaumer,47.7997,16.67095,http://www.triebaumer.com
"Ruster Ausbruch, Austria",Weingut Landauer,47.80102,16.67653,http://www.landauer.info/
"Ruster Ausbruch, Austria",WEINGUT - BUSCHENSCHANK HABERHAUER,47.79955,16.67305,http://www.nhaberhauer.at/
"Ruster Ausbruch, Austria",Weingut Elfenhof,47.80087,16.6668,http://www.elfenhof.at/
"Ruster Ausbruch, Austria",Weingut Karnerhof in Rust,47.79884,16.67616,http://www.karnerhof-rust.at/
"Ruster Ausbruch, Austria",Weingut Peter Schandl,47.80115,16.67662,http://www.schandlwein.com/
"Ruster Ausbruch, Austria",Weingut Giefing,47.80143,16.67562,http://www.wein-rust.at/
"Ruster Ausbruch, Austria",Hammer Wein Rust,47.80129,16.67527,http://www.hammerwein.at/
"Ruster Ausbruch, Austria",Just Rust - Weingut Gerhard Just,47.79868,16.67277,http://www.justrust.at/
"Ruster Ausbruch, Austria",Schreiner. Bioweingut.,47.80076,16.6749,http://www.weinbau-schreiner.at/
"Ruster Ausbruch, Austria",Weingut Conrad,47.80055,16.67506,https://www.conrad-wein.at/
"Ruster Ausbruch, Austria",Evelyne Wartha,47.80028,16.67613,
"Ruster Ausbruch, Austria",Weinbau Gruber,47.80147,16.67578,http://www.weinbaugruber.at/
"Ruster Ausbruch, Austria",Weingut Triebaumer,47.80159,16.66909,http://www.triebaumer.at/
"Ruster Ausbruch, Austria",Weingut Ceel,47.80079,16.67446,http://www.weingut-ceel.at/
"Ruster Ausbruch, Austria",Weingut Gassner,47.80087,16.67655,https://www.weingut-gassner.at/
"Ruster Ausbruch, Austria",Tremmel Weinbau,47.79866,16.67327,https://www.weinbau-tremmel.at/
"Ruster Ausbruch, Austria",Weingut Lehner-Horvath,47.80002,16.67256,http://www.lehner-horvath.at/
"Ruster Ausbruch, Austria",Viticulture Michael Wenzel,47.80166,16.67693,http://www.michaelwenzel.at/
"Ruster Ausbruch, Austria",Weinbau Kurt Artner,47.80136,16.66999,http://www.winzerhof-artner.at/
"Ruster Ausbruch, Austria",Ruster ZechKELLER,47.80034,16.67386,https://www.ruster-zechkeller.info/
"Carnuntum, Austria",Weingut Herl,48.11544,16.86645,https://www.weingut-herl.at/
"Carnuntum, Austria",Weingut Dietrich,48.11264,16.8666,http://www.dietrich-weine.at/
"Carnuntum, Austria",Weingut Josef Pimpel,48.11114,16.86513,http://www.pimpel.com/
"Carnuntum, Austria",Weingut- Heuriger Römerschenke Carnuntum Perger,48.13212,16.90563,http://www.weingut-perger.at/
"Carnuntum, Austria",Weingut Gerhard Markowitsch,48.05544,16.73855,http://www.markowitsch.at/
"Carnuntum, Austria",Weingut Kellerkünstler,48.06848,16.70252,http://www.kellerkuenstler.at/
"Carnuntum, Austria",Weingut Glatzer,48.06071,16.73674,http://www.weingutglatzer.at/
"Carnuntum, Austria",Weingut Franz & Christine Netzl,48.06157,16.73738,http://www.netzl.com/
"Carnuntum, Austria",Weingut BÖHEIM,48.06453,16.70964,http://www.gut-boeheim.at/
"Carnuntum, Austria",Weingut Philipp Grassl GmbH,48.05738,16.73732,http://www.weingut-grassl.com/
"Carnuntum, Austria",Weingut ARTNER,48.07205,16.78034,https://www.artner.co.at/wein/weingut.html
"Carnuntum, Austria",Weingut Payr,48.06835,16.78628,http://www.weingut-payr.at/
"Carnuntum, Austria",Johann Büller,48.11423,16.86777,
"Carnuntum, Austria",Winery and tavern Riedmüller,48.14858,16.94165,http://michaelariedmueller.at/
"Carnuntum, Austria",Weingut Dorli Muhr,48.07985,16.95375,http://www.dorlimuhr.at/
"Carnuntum, Austria",Weingut & Gästezimmer Edelmann,48.06259,16.73771,http://www.edelmann.co.at/
"Carnuntum, Austria",Weingut Johannes Trapl,48.04336,16.67473,http://www.johannestrapl.com/
"Carnuntum, Austria",Winery Lukas Markowitsch E.U.,48.05738,16.74065,http://www.lukas-markowitsch.com/
"Carnuntum, Austria",Weingut Taferner,48.05501,16.73797,http://www.tafi.at/
"Carnuntum, Austria",Weingut Martin Netzl,48.06013,16.73709,http://www.netzl.net/
"Carnuntum, Austria",Oppelmayer Weingut,48.05884,16.73809,http://oppelmayer.at/
"Carnuntum, Austria",Weingut Familie Pitnauer,48.06072,16.73855,https://www.pitnauer.com/
"Carnuntum, Austria",Weingut Glock KG,48.05803,16.73623,http://www.weingut-glock.at/
"Carnuntum, Austria",Carnuntumgut,48.11431,16.86568,http://www.carnuntumgut.com/Kontakt/
"Carnuntum, Austria",20er Schulz Weingut,48.05826,16.73815,https://www.schulz.co.at/
"Carnuntum, Austria",Weinbau Hillebrand,48.1124,16.86537,http://weinbau-hillebrand.blogspot.com/
"Carnuntum, Austria",Weingut Christian Grassl - Nepomukhof,48.0598,16.73609,http://www.nepomukhof.at/?utm_source=google&utm_medium=wix_google_business_profile&utm_campaign=10758593857896458456
"Carnuntum, Austria",Weinbau - Familie Schmidt,48.02205,16.77383,http://www.weinbau-schmidt.at/
"Carnuntum, Austria",Weingut Gottschuly Grassl,48.06891,16.78517,http://www.gottschuly.at/
"Carnuntum, Austria",Weinbauverein,48.11249,16.86661,https://www.petronell-carnuntum-wein.at/kontakt.html
"Wien, Austria",Weingut & Heuriger Christ,48.27812,16.40705,http://www.weingut-christ.at/
"Wien, Austria",Winery Cobenzl,48.26424,16.32056,http://www.weingutcobenzl.at/
"Wien, Austria",Schlumberger Kellerwelten,48.23764,16.35763,https://www.schlumberger.at/de/kellerwelten
"Wien, Austria",Weingut Franz Wieselthaler,48.13789,16.39919,http://www.weingut-wieselthaler.at/
"Wien, Austria","Fuhrgassl-Huber, Weingut und Buschenschank",48.25119,16.30134,https://www.fuhrgassl-huber.at/
"Wien, Austria",Weinbau und Heuriger Wiltschko,48.16011,16.25864,https://www.weinbau-wiltschko.at/
"Wien, Austria",Vineyard & Winery Richard Lentner,48.28286,16.40887,https://www.lentner.info/
"Wien, Austria",Organic viticulture Obermann,48.26204,16.33241,http://www.weinbauobermann.at/
"Wien, Austria",WeinGutReimitz,48.26623,16.35422,https://instagram.com/weingutreimitzamnussberg
"Wien, Austria",Weingut Hajszan Neumann,48.25382,16.3587,http://www.hajszanneumann.com/
"Wien, Austria",Mayer am Pfarrplatz - Heuriger - Beethovenhaus - Weingut,48.25507,16.35889,http://www.pfarrplatz.at/
"Wien, Austria",Weingut Habsburg,48.21678,16.34493,https://www.weingut-habsburg.com/
"Wien, Austria",Weingut Wolf Raiding,48.19922,16.37817,https://www.weingut-wolf.at/2018/05/09/wolf-s-wine-tour-2018/
"Wien, Austria",Bio-Vegan-Weingut Josef Salomon,48.18933,16.33049,http://www.weingut-salomon.at/portfolio-item/angelica/
"Wien, Austria",Müllers Heuriger & Weingut,48.25761,16.33863,http://www.muellers-heuriger.at/
"Wien, Austria",Laurenzfive Fine Wine GmbH,48.20015,16.35486,http://www.laurenzfive.com/
"Wien, Austria",Weingut Walter Wien,48.30216,16.38672,http://weingut-walter-wien.at/
"Wien, Austria",Stadtweingut Johannes Müller,48.25747,16.33874,http://www.jmueller.at/
"Wien, Austria",Weingut Hofer,48.19979,16.3492,http://www.cat-wine.at/Produkte.htm
"Wien, Austria",Kleinster Weingarten Wiens,48.20113,16.3751,
"Wien, Austria",Brut Nature & Extra Brut,48.22089,16.36721,
"Wien, Austria",Weingut Bernreiter,48.2789,16.40747,https://bernreiter.at/
"Wien, Austria",Hengl-Haselbrunner,48.24742,16.34824,https://www.hengl-haselbrunner.at/
"Wien, Austria",Winery & Viticulture Wieselthaler Stefan,48.13934,16.39319,http://www.der-heurige.at/
"Wien, Austria",Edlmoser Vineyard & Winery,48.14858,16.25964,http://www.edlmoser.com/
"Wien, Austria",Buschenschank Franzinger,48.2651,16.3542,
"Wien, Austria",Zum Werkelmann KG,48.16769,16.39876,https://www.werkelmann.at/
"Wien, Austria",Weinbau Leitner,48.21994,16.29123,http://www.weinbau-leitner.at/
"Wien, Austria",Heuriger Herrgott aus Sta,48.21465,16.3162,http://www.herrgottaussta.eatbu.com/
"Wien, Austria",Buschenschank Uhler,48.2612,16.32838,http://www.weinuhler.at/
"Wien, Austria",Eichhorn Winery,48.31262,16.39341,http://www.eichhornwinery.com/
"Wien, Austria",Weinbau Martin Distl,48.13311,16.25933,http://www.weinbau-distl.at/
"Wien, Austria",s'Kellerstöckl,48.30521,16.39389,https://bartholomaeushuette.wordpress.com/
"Wien, Austria",Bioweingut Lenikus GmbH,48.25581,16.34239,https://bioweingutlenikus.at/
"Wien, Austria",Vinomen,48.20926,16.36808,
"Wien, Austria",Weinbau Jutta Ambrositsch,48.19752,16.39155,http://www.jutta-ambrositsch.at/kontakt
"Wien, Austria",Heli's,48.21393,16.3382,
"Wien, Austria",Weingut-Heuriger Alter Bach-Hengl,48.25595,16.34492,http://www.bach-hengl.at/index_e.html
"Wien, Austria",heurigen krenek am weingut h.p.göbel,48.31046,16.4012,http://www.weinbaugoebel.at/
"Wien, Austria",Weingut Fritz Wieninger,48.30215,16.40899,http://www.wieninger.at/
"Wien, Austria",Weinbau Beranek,48.13364,16.26398,http://www.weinbau-beranek.at/
"Wien, Austria",Winzermeisterei Dirnwöber,48.1919,16.39051,
"Wien, Austria",Schlumberger Wein- und Sektkellerei GmbH,48.23778,16.35797,http://swsk-group.com/
"Wien, Austria",Johann Kattus GmbH,48.23946,16.34847,https://kattus.at/
"Wien, Austria",Winzermeisterei Dirnwöber,48.1939,16.2862,http://www.winzermeisterei-dirnwoeber.at/
"Mittelburgenland, Austria",Winery Silvia Heinrich,47.59927,16.61914,https://www.weingut-heinrich.at/
"Mittelburgenland, Austria",Weingut Gesellmann,47.59895,16.62913,http://www.gesellmann.at/
"Mittelburgenland, Austria",VITIKULT Rot-Wein- Kunst Mittelburgenland,47.59975,16.62585,http://www.vitikult.at/
"Mittelburgenland, Austria",Weinbau Fam. Hans Rohrer,47.46446,16.64377,https://www.rohrerwein.at/
"Mittelburgenland, Austria",weingutwessely,47.58694,16.55152,http://www.weingutwessely.at/kontakt.html
"Mittelburgenland, Austria",Weingut Pfneisl,47.59927,16.62161,http://www.weingut-pfneisl.at/
"Mittelburgenland, Austria",Da Rebler,47.46484,16.64247,http://www.darebler.at/
"Mittelburgenland, Austria",Weingut Andreas Neubauer,47.59965,16.6254,
"Mittelburgenland, Austria",Domaine Mayrhofer,47.5882,16.54911,https://www.domaine-mayrhofer.at/
"Mittelburgenland, Austria",Weingut GAGER,47.60016,16.62422,https://www.weingut-gager.at/
"Mittelburgenland, Austria",Weingut am Scheibl,47.42547,16.5183,
"Mittelburgenland, Austria",IBY Rotweingut,47.58599,16.5532,https://www.iby.at/
"Mittelburgenland, Austria",Weinbau Kovacs,47.59706,16.63372,http://www.weinbau-kovacs.at/
"Mittelburgenland, Austria",Weingut Kerschbaum,47.59172,16.53322,http://www.kerschbaum.at/
"Mittelburgenland, Austria",Kerstinger Hans u Marianne,47.59368,16.54713,
"Mittelburgenland, Austria",Weingut Familie Fuchs,47.59331,16.54992,http://www.weingut-fuchs.at/
"Mittelburgenland, Austria",Prickler Rotweingut,47.46233,16.63091,http://www.prickler.at/
"Mittelburgenland, Austria",Weingut Juliana Wieder,47.60109,16.5423,http://www.weingut-juliana-wieder.at/
"Mittelburgenland, Austria",Weinbau Familie Magedler,47.46383,16.64108,
"Mittelburgenland, Austria",Weingut Ernst,47.59843,16.6336,http://www.weinguternst.at/
"Mittelburgenland, Austria",Weingut WELLANSCHITZ,47.59771,16.54677,http://www.wellanschitz.at/
"Mittelburgenland, Austria",Weingut Josef u. Maria Reumann GmbH,47.59743,16.63475,https://weingut-reumann.at/
"Mittelburgenland, Austria",Weingut K + K Kirnbauer,47.59468,16.62252,http://www.phantom.at/
"Mittelburgenland, Austria",Weingut Hans Igler GmbH,47.59937,16.64351,http://www.hans-igler.com/
"Mittelburgenland, Austria",Weingut Strehn,47.59423,16.64366,http://www.strehn.at/
"Mittelburgenland, Austria",Weingut Wolf,47.56608,16.53006,http://www.weingut-wolf.at/
"Mittelburgenland, Austria",Eichenwald Weine,47.57567,16.54604,https://www.eichenwald.at/
"Mittelburgenland, Austria",Iby-Lehrner Weingut,47.58767,16.54939,http://www.iby-lehrner.at/
"Mittelburgenland, Austria",Weingut Christian Kirnbauer,47.59396,16.63686,https://weingut-kirnbauer.at/
"Mittelburgenland, Austria",Weingut Josef Tesch GmbH,47.59956,16.54839,http://www.tesch-wein.at/
"Mittelburgenland, Austria",Heribert Bayer Kellerei In Signo Leonis GmbH,47.59081,16.57202,https://www.weinfreund.at/
"Mittelburgenland, Austria",Weingut Weninger,47.5869,16.54829,http://www.weninger.com/
"Mittelburgenland, Austria",Weingut Racz,47.60274,16.54996,https://www.weingut-racz.at/
"Mittelburgenland, Austria",Grenzlandhof Weingut Reumann Deutschkreutz,47.60398,16.62408,https://www.grenzlandhof-reumann.com/
"Mittelburgenland, Austria",Rotweine Lang,47.59774,16.54894,http://www.rotweinelang.at/
"Mittelburgenland, Austria",Weinbau Edwin Weber,47.46389,16.64125,http://www.weinbau-edwin-weber.at/
"Mittelburgenland, Austria",Weingut Duschanek,47.59158,16.53472,http://www.weingut-duschanek.at
"Mittelburgenland, Austria",Deutschkreutzer Weinmanufaktur GmbH,47.59254,16.63213,http://www.deutschkreutzerwein.at/
"Mittelburgenland, Austria",Weingut Artner,47.59961,16.60634,http://www.weingut-artner.at/
"Mittelburgenland, Austria",Weingut Wiedeschitz,47.60108,16.62672,http://www.weingut-wiedeschitz.at/
"Mittelburgenland, Austria",Weingut & Jubiläumsschenke Weinhäusel Christian,47.59851,16.54703,http://www.weinhaeusel.at/
"Mittelburgenland, Austria",Hundsdorfer Fam. Weingut,47.59699,16.54841,https://www.hundsdorfer.at/
"Mittelburgenland, Austria",Bioweingut Moritz,47.58865,16.54635,http://www.blaufraenkisch.at/
"Mittelburgenland, Austria",Gober & Freinbichler,47.58565,16.54687,http://www.weinevonhand.at/
"Mittelburgenland, Austria",Weingut HUFNAGEL,47.60129,16.54913,https://www.weingut-hufnagel.com/
"Mittelburgenland, Austria",Weingut Familie Weber,47.46253,16.63544,http://www.weingut-fam-weber.at/
"Mittelburgenland, Austria",Weingut Familie Toth,47.46414,16.63656,http://www.winelife.at/
"Mittelburgenland, Austria",Weingut 2Leser,47.59542,16.6364,http://www.2leser.at/
"Mittelburgenland, Austria",Weingut Paul Lehrner,47.58948,16.54551,http://www.paul-lehrner.at/
"Kamptal, Austria",Rudolf Rabl GmbH,48.47342,15.66125,
"Kamptal, Austria",Weingut Bründlmayer,48.47388,15.66508,https://bruendlmayer.at/
"Kamptal, Austria",Weingut Christoph Edelbauer,48.46718,15.65782,http://www.weingut-edelbauer.at/
"Kamptal, Austria",Weingut Hirsch,48.46904,15.70917,http://www.weingut-hirsch.at/
"Kamptal, Austria",weingut-kamauf.at,48.511,15.7455,https://www.weingut-kamauf.at/
"Kamptal, Austria",Schloss Gobelsburg,48.46104,15.69598,http://www.gobelsburg.at/
"Kamptal, Austria",Weingut Rosner,48.47021,15.66345,https://www.rosnerwein.at/
"Kamptal, Austria",Weingut Loimer GmbH,48.48208,15.68249,https://www.loimer.at/
"Kamptal, Austria",Weingut Schuberth,48.46838,15.67008,http://www.weingutschuberth.at/
"Kamptal, Austria",Weingut Hiedler,48.46959,15.67389,http://www.hiedler.at/
"Kamptal, Austria",Weingut Jurtschitsch,48.47199,15.6722,http://www.jurtschitsch.com/
"Kamptal, Austria",Vineyard on the mountain Ludwig Gruber,48.49766,15.60519,http://www.weingut-am-berg.at/
"Kamptal, Austria",Weingut Weszeli,48.47114,15.66323,http://www.weszeli.at/
"Kamptal, Austria",Weingut Brandl,48.49564,15.702,http://www.weingut-brandl.at/
"Kamptal, Austria",Weingut Wandl Langenlois,48.46811,15.67055,
"Kamptal, Austria",Landgut Schöne Erde,48.47819,15.66965,http://www.schoeneerde.at/
"Kamptal, Austria",Weingut Fichtenbauer-Mold,48.46885,15.67462,http://fichtenbauer-mold.at/
"Kamptal, Austria",Weingut Vogl,48.47154,15.67914,http://www.weingut-vogl.at/
"Kamptal, Austria",Weingut & Heuriger Lehner,48.47456,15.65849,http://www.weingutlehner.at/
"Kamptal, Austria",Weingut Leindl,48.49285,15.69128,http://www.weingutleindl.at/
"Kamptal, Austria",Winery Birgit Eichinger,48.47326,15.72874,http://www.weingut-eichinger.at/
"Kamptal, Austria",Martin & Anna Arndorfer,48.47162,15.73908,http://www.ma-arndorfer.at/
"Kamptal, Austria",Weingut Robert Herbst,48.4753,15.66,http://www.robertherbst.at/
"Kamptal, Austria",Weingut Steininger,48.47397,15.67637,http://weingut-steininger.at/
"Kamptal, Austria",Weingut Thomas Leithner,48.4746,15.67127,http://www.thomas-leithner.at/
"Kamptal, Austria",Weingut FKK - Franz Krammer Kamptal,48.49241,15.69168,https://www.weingut-fkk.at/
"Kamptal, Austria",Bio Weingut Gruber 43 - Markus und Gabi Gruber,48.49763,15.60573,https://gruber43.at/
"Kamptal, Austria",Weingut Manfred Gruber,48.49773,15.60557,http://www.gruber-weingut.at/
"Kamptal, Austria",Hofbauer Weingut,48.49839,15.60377,http://www.hofbauer-weine.at/
"Kamptal, Austria",Charly Rol Wines,48.47453,15.65817,https://www.charlyrol.com/
"Kamptal, Austria",Weinbau Krisztina und Johann Hagmann,48.47692,15.65803,http://www.weingut-hagmann.at/
"Kamptal, Austria",Weingut Wolfgang & Sylvia Groll,48.51593,15.65446,http://www.weingut-groll.at/
"Kamptal, Austria",Bio-Weingut Sebastian Angerer,48.4714,15.603,http://www.weingutangerer.at/
"Kamptal, Austria",Weingut Steinschaden Schiltern,48.51823,15.61969,http://www.weingut-steinschaden.at/
"Kamptal, Austria",Weinbau Manuel Heinzl,48.4724,15.60347,http://www.weinbau-heinzl.com/
"Kamptal, Austria",Weingut Familie Traunfellner,48.49821,15.60544,http://www.traunfellner-wein.at/
"Kamptal, Austria",Weingut Karl Daschl,48.4596,15.69402,http://www.daschl.at/
"Kamptal, Austria",Weingut Topf,48.4729,15.73099,http://www.weingut-topf.at/
"Kamptal, Austria",Weingut Fam Völkl,48.47281,15.6069,http://www.weingut-voelkl.at/
"Kamptal, Austria",Weingut Schuster,48.47188,15.60237,https://www.weingutschuster.at/
"Kamptal, Austria",Weingut Alois Höllerer,48.45031,15.76263,https://www.weingut-hoellerer.at/
"Kamptal, Austria",Winery Oskar Hager,48.51414,15.67325,http://www.weingut-hager.at/
"Kamptal, Austria",Kurt Angerer,48.47407,15.59261,http://www.kurt-angerer.at/
"Kamptal, Austria",Weingut Kittenberger,48.49906,15.60706,http://www.weingut-kittenberger.at/
"Kamptal, Austria",Weingut Josef & Philipp Bründlmayer,48.41015,15.71847,http://www.philipp-bruendlmayer.at/
"Kremstal, Austria",Winery Mayer Resch,48.40328,15.58157,http://www.weinbau-resch.at/
"Kremstal, Austria",Winery Nigl,48.44606,15.56594,http://www.weingutnigl.at/
"Kremstal, Austria",Weingut Sepp Moser,48.42432,15.65888,http://www.vitikultur-moser.at/
"Kremstal, Austria",Weingut Türk,48.45035,15.60157,https://weinguttuerk.at/
"Kremstal, Austria",Lesehof STAGARD,48.40153,15.57847,http://www.stagard.at/
"Kremstal, Austria",Weingut ILKERL LUF,48.4261,15.58684,https://www.ilkerl-luf.at/
"Kremstal, Austria",Weingut Müller,48.36264,15.66411,http://www.weingutmueller.at/
"Kremstal, Austria",Weingut Salomon Undhof,48.40613,15.58973,http://www.salomonwines.com/
"Kremstal, Austria",Winzerhof Familie Dockner,48.35042,15.64751,http://www.dockner.at/
"Kremstal, Austria",Weingut Stadt Krems,48.41194,15.59611,http://www.weingutstadtkrems.at/
"Kremstal, Austria",Weingut ~ Gästehaus Zöhrer,48.41958,15.61898,http://www.zoehrer.at/
"Kremstal, Austria",Winzer Krems eG - Weinerlebnis SANDGRUBE 13 wein.sinn,48.42032,15.61812,https://www.winzerkrems.at/
"Kremstal, Austria",Heuriger Weingut Hamböck,48.40327,15.58199,http://www.heuriger-krems.at/
"Kremstal, Austria",Weingut Josef Schmid,48.45252,15.60095,https://www.j-schmid.at/
"Kremstal, Austria",Weingut Edlinger + Unger GmbH,48.38503,15.61474,https://www.edlingerwein.at/
"Kremstal, Austria",Weingut Familie Proidl,48.45005,15.55829,http://www.proidl.com/
"Kremstal, Austria",Weinbau & Heuriger Stoiber,48.41981,15.61626,https://stoiber-wein.at/
"Kremstal, Austria",Weinbau Reiter,48.37683,15.64997,https://www.weinbaureiter.at/
"Kremstal, Austria",Weinhof Ettenauer,48.34904,15.64929,https://www.weinhof-ettenauer.at/
"Kremstal, Austria",Bioweingut Harm,48.36303,15.66431,http://www.weinschwaermer.at/
"Kremstal, Austria",Weingut Rethaller,48.37989,15.65255,https://www.rethaller.at/
"Kremstal, Austria",Weinhof Maier,48.38015,15.65267,http://www.weinhof-maier.at/
"Kremstal, Austria",Weingut Heninger,48.36224,15.66372,https://www.heninger.at/de/
"Kremstal, Austria",Weingut Alois Zimmermann OG,48.39975,15.68625,https://www.weingut-zimmermann.at/
"Kremstal, Austria",Weinakademie Österreich,48.40673,15.59112,https://www.weinakademie.at/ausbildung.php
"Kremstal, Austria",Weinkellerei Lenz Moser AG,48.42837,15.66476,https://www.lenzmoser.at/
"Kremstal, Austria",Winzerhof Lackinger,48.3616,15.6628,http://www.winzerhof-lackinger.at/
"Kremstal, Austria",Weingut Lukas Hagen,48.42614,15.589,http://weingut-hagen.at/
"Kremstal, Austria",Weingut Lechner,48.45063,15.60386,https://weingutlechner.at/
"Kremstal, Austria",Weingut & Heuriger Rieder,48.41795,15.56171,https://weingutrieder.at/
"Kremstal, Austria",Weingut Karl Proidl,48.44985,15.55641,
"Kremstal, Austria",Weingut Hermann Moser,48.42364,15.6566,http://www.moser-hermann.at/
"Kremstal, Austria",Weingut Geyerhof,48.37877,15.63271,http://www.geyerhof.at/
"Kremstal, Austria",Weingut Stift Göttweig,48.41177,15.59623,http://www.weingutstiftgoettweig.at/
"Kremstal, Austria",Weingut Müller-Grossmann,48.38568,15.6143,http://www.mueller-grossmann.at/
"Kremstal, Austria",Weingut Aigner,48.41927,15.63132,http://aigner-wein.at/
"Kremstal, Austria",OTON Boutique Winery,48.43189,15.65926,http://www.oton.at/
"Kremstal, Austria",Weingut & Gästehaus Stradinger,48.44998,15.60223,https://www.asbacher-klosterkeller.at/
"Kremstal, Austria",Winzerhaus Forstreiter,48.42662,15.66142,http://www.deroffenekeller.at/
"Kremstal, Austria",Josef Rosenberger,48.42015,15.65159,http://www.rosenbergerwein.at/
"Kremstal, Austria",DER FÖRTHOF,48.39836,15.56977,https://www.derfoerthof.at/
"Kremstal, Austria",Weingut Petra Unger,48.38521,15.61515,
"Kremstal, Austria",Weingut Vorspannhof Mayr,48.46529,15.57571,http://www.vorspannhof-mayr.at/
"Kremstal, Austria",Weinhof Parzer,48.37869,15.63348,http://www.weinhof-parzer.at/
"Kremstal, Austria",Weinbaugebiet Kremstal,48.41758,15.62086,
"Wachau, Austria",Weingut Nikolaihof Wachau,48.39446,15.57781,http://www.nikolaihof.at/
"Wachau, Austria",Weingut Hermenegild Mang,48.39566,15.46993,http://www.weingut-hermenegild-mang.at/
"Wachau, Austria",Weingut Gruber Wachau,48.40173,15.46342,http://www.wachau-wein.at/
"Wachau, Austria",Domäne Wachau,48.39207,15.52731,http://www.domaene-wachau.at/
"Wachau, Austria",Winery | Winery Josef & Herta Donabaum,48.36084,15.39199,http://www.weindonabaum.at/
"Wachau, Austria",Winery Thomas Gritsch - courtyard in the arcades,48.36065,15.39448,http://www.weingut-gritsch.at/
"Wachau, Austria",Weingut Polz Wachau,48.39848,15.48392,http://polzwachau.at/
"Wachau, Austria",Weingut Holzapfel Gutshofrestaurant Prandtauerhof,48.38576,15.46044,https://www.holzapfel.at/
"Wachau, Austria",Weingut Franz Stierschneider,48.39771,15.46842,http://www.weingut-stierschneider.at/
"Wachau, Austria",Weingut Höllmüller,48.38675,15.45547,https://weingut-hoellmueller.at/
"Wachau, Austria",Weingut Prager,48.39281,15.46721,http://www.weingutprager.at/
"Wachau, Austria",Weingut Emmerich Knoll,48.38836,15.54219,https://weinundwachau.at/marke/86-knoll?gad_source=1&gclid=CjwKCAjw57exBhAsEiwAaIxaZuYE0O5ifeqkUEhlE1g9ikujO0kXrVpPIL5yTZfxjgjlvJihMejbPRoCRmsQAvD_BwE
"Wachau, Austria",Ferdl Denk,48.39809,15.46893,https://www.thal-wachau.at/
"Wachau, Austria",Weingut/Heuriger Eigl,48.38039,15.45216,http://www.weingut-eigl.at/
"Wachau, Austria",Weingut Eder Wachau,48.38725,15.55641,http://www.eder-wachau.at/
"Wachau, Austria",Weingut Braun,48.3816,15.45678,http://www.braun.wine/
"Wachau, Austria",Weingut Alfred Schwaiger,48.38099,15.45359,http://www.weingut-schwaiger.at/
"Wachau, Austria",Weingut Pomaßl,48.41622,15.48217,http://www.herbstzauber.at/
"Wachau, Austria","Weingut Rudi Schrey, Wachauer Wein und Frizzante",48.38094,15.45216,https://www.schrey.at/
"Wachau, Austria",Richard Stierschneider,48.38723,15.53252,http://www.rs-wine.at/
"Wachau, Austria",Weingut Hutter Silberbichlerhof,48.38952,15.59158,http://www.hutter-wachau.at/
"Wachau, Austria",Weingut Jäger,48.40014,15.47385,http://www.weingut-jaeger.at/
"Wachau, Austria",Weingut Bayer,48.372,15.43924,http://www.weingut-bayer.com/
"Wachau, Austria",Weingut Erich Machherndl,48.38108,15.45573,http://www.machherndl.com/
"Wachau, Austria",Kartäuserhof - Weingut Karl Stierschneider,48.39915,15.47234,http://www.stierschneider.at/
"Wachau, Austria",Weingut Mazza,48.39806,15.46773,http://www.mazza.at/
"Wachau, Austria",Weingut Franz Hirtzberger,48.36687,15.41785,http://www.hirtzberger.com/
"Wachau, Austria",Weingut FJ Gritsch MAURITIUSHOF,48.36569,15.41453,http://www.gritsch.at/
"Wachau, Austria",Weingut Schneeweis,48.36032,15.40539,http://www.weingut-schneeweis.at/
"Wachau, Austria",Weingut Böhmer,48.3952,15.52058,http://www.weingut-boehmer.at/
"Wachau, Austria",Wein- und Obstbau Stefan Muthenthaler,48.33732,15.40336,http://www.muthenthaler-wachau.at/
"Wachau, Austria",Wachau - Kellerberg,48.39553,15.52995,
"Wachau, Austria",Domäne Roland Chan,48.38387,15.45057,https://domaene-rolandchan.at/
"Wachau, Austria",Winery Grabenwerkstatt,48.3625,15.31331,http://www.grabenwerkstatt.at/
"Wachau, Austria",Weinhofmeisterei Mathias Hirtzberger,48.38219,15.45701,http://www.weinhofmeisterei.at/
"Wachau, Austria",Weingut Tegernseerhof,48.38774,15.54304,http://www.tegernseerhof.at/
"Wachau, Austria",Weingut kalmuck WACHAU GmbH,48.36544,15.41462,http://www.kalmuck.at/
"Wachau, Austria",Weingut Heuriger Bäuerl,48.38633,15.53303,http://www.baeuerl.at/
"Wachau, Austria",Weingut Lagler,48.36617,15.41087,http://www.laglers.at/
"Wachau, Austria",Weingut Alzinger,48.38768,15.54291,http://www.alzinger.at/
"Wachau, Austria",Weingut Rudi Pichler,48.38205,15.45114,https://www.rudipichler.at/
"Wachau, Austria",Bioweingut Schmidl,48.39253,15.52506,https://www.weingut-schmidl.at/
"Wachau, Austria",Weingärtnerei Schoissengeyer,48.39574,15.48463,http://www.schoissengeyer.at/
"Wachau, Austria",Weingut Gritsch Roman,48.36406,15.40475,https://romangritsch.at/
"Wachau, Austria",Weingut Langmayer,48.38012,15.45443,http://www.weingut-langmayer.at/
"Wachau, Austria",Weingut Franz ZOTTL,48.3984,15.46866,http://www.weingut-zottl.at/
"Wachau, Austria",Weingut Pichler-Krutzler,48.38825,15.5332,http://www.pichler-krutzler.at/
"Wachau, Austria",Weingut und Heuriger Graf,48.38305,15.55834,http://www.weingut-graf.at/
"Wachau, Austria",Weingut und Restaurant Josef Jamek,48.38779,15.46208,https://www.jamekwein.at/
"Wachau, Austria",Weingut und Heuriger Maria & Manfred Hick,48.35603,15.41748,https://sites.google.com/view/mariahickoberarnsdorf58/willkommen-bei-maria-und-manfred-hick
"Weinland, Austria",Weingut Tschank,47.93775,16.48392,http://www.weingut-tschank.at/
"Weinland, Austria",Weinbau H.P. Harrer,47.95148,16.83754,http://www.weinbau-harrer.at/
"Weinland, Austria",Weingut Haider Emmerich & Christian,47.95124,16.8369,http://www.haiderweine.at/
"Weinland, Austria",mayersistas,48.61886,15.42239,http://www.mayersistas.at/
"Thermenregion, Austria",Winery Alphart GnbR,48.0199,16.29705,http://www.alphart.com/
"Thermenregion, Austria",Winery Familie Auer,47.95541,16.30308,https://www.weingutauer.at/
"Thermenregion, Austria",Weingut Leo Aumann,47.99895,16.2708,https://www.aumann.at/
"Thermenregion, Austria",Winery Wölflinger Karl & Karin,48.12244,16.26516,http://www.heuriger-woelflinger.at/
"Thermenregion, Austria",Weingut Hecher,47.98454,16.21639,https://hecherwein.at/
"Thermenregion, Austria",Winery Christian Schabl,48.04588,16.27629,http://www.schabl.me/
"Thermenregion, Austria",Weinfestival Thermenregion,48.01035,16.23188,https://www.weinfestival.at/kontakt--impressum.html
"Thermenregion, Austria",Weingut Heinrich Hartl,47.97891,16.32492,http://www.weingut-hartl.at/
"Thermenregion, Austria",stadlmann,48.01841,16.29489,http://www.stadlmann-wein.at/
"Thermenregion, Austria",weingut johannes gebeshuber,48.04504,16.28171,http://www.weingut-gebeshuber.at/
"Thermenregion, Austria",Freigut Thallern,48.05292,16.2922,https://www.freigut-thallern.at/
"Thermenregion, Austria",Landauer-Gisperg; Bioweingut & Winzerhof,47.96197,16.3022,http://www.winzerhof.eu/
"Thermenregion, Austria",Land-& Weingut Nowak,48.045,16.31333,http://wein-nowak.at/
"Thermenregion, Austria",Weingut Familie Reinisch,47.97418,16.30313,http://www.j-r.at/
"Thermenregion, Austria",BREYER Weingut & Heurigenrestaurant,48.00045,16.24211,https://www.weingut-breyer.at/
"Thermenregion, Austria",Weingut Franz Schwabl,48.01258,16.24419,http://www.weingutschwabl.at/
"Thermenregion, Austria",Streiterhof,48.00297,16.25129,http://www.weingut-maerzweiler.at/
"Thermenregion, Austria",Weinhof Schmid-Kogler,48.00392,16.21451,http://www.schmid-kogler.at/
"Thermenregion, Austria",Christa Waldmayer-Klancnik Flaschenweinverkauf,47.99717,16.20928,https://waldmayer.at/
"Thermenregion, Austria",Winery Toni Rampl,48.00475,16.23911,https://badenerwein.at/betrieb/rampl-anton/
"Thermenregion, Austria",Weinbau Familie Ceidl,48.01144,16.24659,http://badenerwein.at/betrieb/ceidl-familie
"Thermenregion, Austria",Weingut Brendinger Zur Alten Post,47.98479,16.21833,http://www.sooss.at/winzer/brendinger26/
"Thermenregion, Austria",Weingut Zöchling,47.95094,16.27649,http://www.weingut-zoechling.at/
"Thermenregion, Austria",Heurigen Märzweiler,48.00283,16.25152,
"Thermenregion, Austria",Weinbau Eitler Christian,48.00369,16.24441,
"Thermenregion, Austria",Bio-Weingut Frühwirth,47.94956,16.28742,https://fruehwirth.bio/
"Thermenregion, Austria",Brunngassenheuriger & Weingut HERZOG,47.96071,16.1979,http://www.weingut-herzog.at/
"Thermenregion, Austria",Weingut Artner,47.99212,16.34477,http://www.artnerweine.at/
"Thermenregion, Austria",DUNGEL Heuriger & Weingut,47.92977,16.21526,http://www.dungel.at/
"Thermenregion, Austria",Burgundermacher Weingut Johann Gisperg,47.9515,16.27828,https://gisperg.wine/
"Thermenregion, Austria",Weingut Familie Buchart 58,47.98466,16.21438,http://www.buchart58.at/
"Thermenregion, Austria",Weingut Steiner zum 67er,47.98437,16.21318,http://www.steiner67er.at/
"Thermenregion, Austria",Weingut Österreicher aus Pfaffstätten,48.01756,16.26481,https://www.weingut-oesterreicher.at/
"Thermenregion, Austria",Vineyard Red Mäuerl,48.04881,16.27682,http://www.weingut-heimburg.at/
"Thermenregion, Austria",Weingut Schwertführer 47er,47.98431,16.21531,http://www.schwertfuehrer.eu/
"Thermenregion, Austria",Weingut Heggenberger,47.95855,16.30158,http://www.heggenberger.at/
"Thermenregion, Austria",Weingut Josef & Jana Piriwe,48.01867,16.29557,http://www.piriwe.at/
"Thermenregion, Austria",Weingut Hannes Dachauer,47.95796,16.29991,https://weingut-dachauer.at/
"Thermenregion, Austria",Weinbau Drimmel 57,47.98443,16.21428,http://weinbau-drimmel57.at/
"Thermenregion, Austria",Weingut Schaflerhof,48.01597,16.29321,http://www.schaflerhof.at/
"Thermenregion, Austria",Winery Familie Pagler,47.98487,16.21489,http://www.weingut-pagler.at/
"Thermenregion, Austria",Weingut Pöltl,47.92623,16.2169,http://www.weingut-poeltl.at/
"Thermenregion, Austria",Weinbau Riegler-Dorner,47.95719,16.17164,http://www.riegler-dorner.at/
"Thermenregion, Austria",Weinbau Ednitsch,47.95454,16.23209,http://www.ednitsch.at/
"Thermenregion, Austria",Schlager Weingut Flaschenweinverkauf,47.98483,16.21756,http://www.weingutschlager.at/
"Thermenregion, Austria",Grabner & Schierer GmbH,47.98442,16.21449,http://www.grabner-schierer.at/
"Thermenregion, Austria",Weingut Frühwirth Martin,47.95166,16.2794,http://www.weingut-fruehwirth.at/
"Thermenregion, Austria",Weingut Zierer,48.04335,16.2742,http://www.weingut-zierer.at/
"Thermenregion, Austria",Winzergenossenschaft i Baden b Wien reg.Gen.mbH,48.01142,16.24469,
"Thermenregion, Austria",Weingut Geiszler,48.08227,16.31751,http://www.weingut-geiszler.at/
"Thermenregion, Austria",Weingut Friedrich und Margarete GROSS,48.02564,16.3038,http://www.weingut-gross.at/
"Thermenregion, Austria",Weingut KNÖTZL,47.95879,16.30144,http://www.weingut-knoetzl.at/
"Thermenregion, Austria",Weingut Biegler,48.045,16.27772,http://www.weingut-biegler.at/
"Thermenregion, Austria",Karl Mairinger,47.99452,16.33956,
"Thermenregion, Austria",Weingut Schagl,47.8965,16.20381,https://www.weingut-schagl.at/
"Thermenregion, Austria",Weingut u. Heuriger Christine u. Harald Schachl,47.95911,16.20249,http://www.schachl.at/
"Thermenregion, Austria","Alphart am Mühlbach, Weingut und Heuriger",48.0155,16.29449,http://www.alphart.at/
"Thermenregion, Austria",Barbach Weinbau,48.11693,16.26203,https://www.weinbau-barbach.at/
"Thermenregion, Austria",Weingut Schneider,47.95893,16.30093,http://www.weingut-schneider.co.at/
"Thermenregion, Austria",Heuriger Martin Nigl,48.12217,16.26804,http://www.nigl.at/
"Thermenregion, Austria",Weinbau u. Buschenschank Familie Mayer,48.1169,16.26948,http://www.weinbau-mayer.at/
"Thermenregion, Austria",Nigl.com,48.11485,16.27959,http://www.nigl.com/
"Thermenregion, Austria",Drexler-Leeb Weinbau-Heuriger,48.12403,16.26202,http://www.drexler-leeb.at/
"Thermenregion, Austria",Weingut Schlossberg,47.97716,16.20488,https://www.weingutschlossberg.at/
"Thermenregion, Austria",Wein & Heuriger | Pferschy-Seper,48.08202,16.28492,https://www.pferschy-seper.at/
"Thermenregion, Austria",Weinbau Hummelberger,48.11342,16.2694,http://www.hummelberger.com/
"Thermenregion, Austria",Weinbau Straitz & Straitz,48.04378,16.27484,http://www.straitz.com/
"Thermenregion, Austria",Weingut Schachl Andrea and Robert F - Vöslauer Weinhof,47.96709,16.2153,
"Thermenregion, Austria",WEINGUT- HEURIGER - GÄSTEHAUS Hannes Hofer,48.04387,16.27697,https://www.weingut-hofer.at/
"Thermenregion, Austria",Heurigengalerie Plos,47.98513,16.20278,
"Thermenregion, Austria",Krug Gumpoldskirchen - Altes Zechhaus & Weingut,48.04591,16.27553,https://krug.at/
"Thermenregion, Austria",Weingut Christian Fischer,47.98455,16.21681,http://www.weingut-fischer.at/
"Traisental, Austria",Obsthof & Weingut Altenriederer,48.35348,15.71152,https://www.altenriederer.at/
"Traisental, Austria",Winzerhof Erber,48.31792,15.59129,http://www.erber-wein.at/
"Traisental, Austria",Weingut Brachmann,48.35952,15.71303,http://www.weingutbrachmann.at/
"Traisental, Austria",Weingut Leopold Figl,48.3593,15.71202,http://www.weingut-figl.at/
"Traisental, Austria",Winzerhof Weissinger,48.31888,15.67703,http://www.winzerhof-weissinger.at/
"Traisental, Austria",Weingut Thomas Ott,48.33814,15.69822,https://www.ott-traisental.at/
"Traisental, Austria",Heurigen im Weingut Haimel,48.36213,15.73649,http://www.weingut-haimel.at/
"Traisental, Austria",Weingut Wolfgang Müllner-Ab Hof Verkauf geöffnet!,48.35714,15.69618,http://www.weingutmuellner.at/
"Traisental, Austria",Winzerhof Wallner,48.33511,15.69756,http://www.winzerhof-wallner.at/
"Traisental, Austria",Weingut Holzer,48.35713,15.69431,http://www.weingutholzer.at/
"Traisental, Austria",Winzerhaus Kattner,48.34016,15.69968,http://www.kattnerwein.at/
"Traisental, Austria",Weingut Markus Huber GmbH & Co KG,48.33747,15.69727,http://www.weingut-huber.at/
"Traisental, Austria",Winzerhaus Hans Schöller,48.36188,15.71098,http://www.weinschoeller.at/
"Traisental, Austria",Weinbau Nolz,48.33737,15.78219,http://www.nolzwein.at/
"Traisental, Austria",Bioweingut Viktor Fischer im Traisental,48.36727,15.71168,https://fischer-abhof.at/
"Traisental, Austria",Weinbau Thomas Heinrich,48.33745,15.78186,https://www.weinbau-heinrich.at/
"Traisental, Austria",Weinkultur Preiß KG,48.34009,15.67551,http://www.weinkulturpreiss.at/
"Traisental, Austria",Heurigen / Weinbau Schabasser,48.33781,15.78103,http://www.weinbau-schabasser.at/
"Traisental, Austria",Weingut Karl Brindlmayer,48.36437,15.71152,https://www.brindlmayer.at/
"Traisental, Austria",Winzerhof Altmann,48.31255,15.88017,http://www.winzerhof-altmann.at/
"Traisental, Austria",Wein & Obst SCHÖLLER Andreas,48.35986,15.71205,http://www.schoeller-traisental.at/
"Traisental, Austria",Heuriger der Familie Scharnagl,48.33629,15.7865,http://www.weingut-scharnagl.at/
"Traisental, Austria",Weingut Ludwig Neumayer KG,48.31982,15.67574,http://www.weinvomstein.at
"Traisental, Austria",Weingut Gunacker,48.25425,15.67979,
"Traisental, Austria",Winzerhof Strasser,48.33394,15.69663,http://www.facebook.com/winzerhof.strasser
"Traisental, Austria",Weinbau STEINER-Schlegl,48.36951,15.71111,https://weinbausteinerschlegl.wordpress.com/
"Traisental, Austria",Weingut Herzinger | Nußdorf ob der Traisen,48.35332,15.69226,https://www.herzinger.at/
"Traisental, Austria",Herwald Hauleitner,48.35954,15.71232,http://www.weingut-hauleitner.at/
"Traisental, Austria",Weingut Thomas Steiner - Traisental,48.35677,15.69742,http://www.steiner-traisental.at/index.php?content=2
"Traisental, Austria",Weinhof Englhart-Schoderböck,48.31872,15.6773,http://www.weinengl.at/
"Traisental, Austria",Weinhof Kaiser,48.31535,15.66254,http://www.weinhof-kaiser.at/
"Traisental, Austria",Hofmann Rudolf Weingut,48.3321,15.73332,http://www.weingut-hofmann.at/
"Traisental, Austria",Winzerhof Sandbichler,48.34572,15.75301,http://www.winzerhof-sandbichler.at
"Traisental, Austria",Weingut Deimel,48.31656,15.68006,http://www.weindeimel.at/
"Traisental, Austria",Weinbau Miestinger,48.33396,15.70174,http://weinbau-miestinger.at/
"Traisental, Austria",Weinschenke Diry,48.26763,15.64689,https://www.weinhof-diry.at/
"Traisental, Austria",Weingut Steyrer,48.32866,15.65341,https://www.weingut-steyrer.at/
"Traisental, Austria",Weingut Fink,48.32428,15.60982,http://www.weingut-fink.at/
"Traisental, Austria",Heuriger Familie Erharter,48.35147,15.75647,
"Traisental, Austria",Weinhof Christian Dockner,48.33984,15.67784,https://www.traisentalwein.at/de/winzer/weinhof-christian-dockner/
"Traisental, Austria",Weingut Tom Dockner,48.34122,15.67764,http://www.docknertom.at/
"Traisental, Austria",Weingut Siedler Alex.,48.3372,15.6976,http://www.weingut-siedler.at/
"Traisental, Austria",Weingut Karl Heinz Schnabl,48.29809,15.68256,https://weingut-khs.apptastic.at/
"Traisental, Austria",Martin Foretnik - Weingut- Sektkellerei Lechnerhof,48.3647,15.71128,
"Traisental, Austria",Buschenschank Familie Ötl,48.33738,15.78202,https://buschenschank-familie-oetl.eatbu.com/
"Traisental, Austria",Weinbau Gollner,48.33031,15.73178,
"Traisental, Austria",New Chapter Gruener,48.33746,15.69724,https://www.newchapter.wine/
"Traisental, Austria",Georg Jorg,48.35999,15.71219,http://www.winzerhof-jorg.at/impressum
"Traisental, Austria",Winzerhof Familie Rudolf Müllner,48.32448,15.60606,http://winzerhof-muellner.at/
"Südsteiermark, Austria",Winery Tschermonegg,46.67734,15.52094,https://www.tschermonegg.at/
"Südsteiermark, Austria",Weingut Primus - Southern Styria / Christian and Thomas Polz,46.68652,15.61967,http://www.primus.cc/
"Südsteiermark, Austria",Weingut Weissenbacher,46.68492,15.54064,http://www.weingut-weissenbacher.at/
"Südsteiermark, Austria",Winery and tavern Kieslinger,46.79489,15.50788,http://www.weingut-kieslinger.at/
"Südsteiermark, Austria",Weingut Buschenschank Gerngroß,46.77811,15.42356,http://www.weingut-gerngross.at/
"Südsteiermark, Austria",Weingut und Steirische Kellerei Johann Schneeberger GmbH,46.78704,15.47765,https://www.weingut-schneeberger.at/
"Südsteiermark, Austria",BIO Weinbau Thünauer,46.70603,15.4103,http://www.weinbau-thuenauer.com/
"Südsteiermark, Austria",Weingut Kodolitsch,46.76124,15.53465,http://www.kodolitsch.at/
"Südsteiermark, Austria",Winery and Buschenschank Koller,46.79717,15.4321,http://www.weingut-koller.at/
"Südsteiermark, Austria",Weingut Kuntner,46.71268,15.33801,http://www.trinkgenuss.at/
"Südsteiermark, Austria",Weingut Schauer - Südsteiermark,46.78948,15.44072,http://www.weingut-schauer.at/
"Südsteiermark, Austria",Weingut Pongratz - Winery and rooms to rent,46.72192,15.51813,https://www.wein-pongratz.at/
"Südsteiermark, Austria",Weingut Buschenschank Pichler-Schober,46.80242,15.45059,https://www.pichler-schober.at/
"Südsteiermark, Austria",WEIN.GUT.PUGL,46.72549,15.45284,http://www.weingut-pugl.com/
"Südsteiermark, Austria",Weingut Albert - Cramer,46.78952,15.45639,https://www.weingut-albert.at/
"Südsteiermark, Austria",Weingut Alice u. Roland Tauss,46.65284,15.46357,http://www.weingut-tauss.at/
"Südsteiermark, Austria",Weingut & Buschenschank Gallunder,46.68831,15.60446,https://www.gallunder.at/
"Südsteiermark, Austria",Weingut Gross,46.69397,15.57446,http://www.gross.at/
"Südsteiermark, Austria",Weingut Polz,46.68405,15.62236,http://www.weingutpolz.at/
"Südsteiermark, Austria",Weingut Pilch,46.68773,15.58451,https://www.weingut-pilch.at/
"Südsteiermark, Austria",Weingut Elsnegg,46.70074,15.55115,http://www.elsnegg.at/
"Südsteiermark, Austria",Weinschmiede Gamlitz - Weingut Tscherne-Strauss,46.69029,15.53325,https://www.weinschmiede18.at/
"Südsteiermark, Austria",Weingut Johannes Schwarzl,46.69235,15.58266,https://gutschwarzl.at/
"Südsteiermark, Austria",Weingut Franz Lambauer,46.685,15.54486,http://www.weingut-lambauer.com/
"Südsteiermark, Austria",Weingut Leopold Dietrich,46.71038,15.54969,http://www.leopold-dietrich.at/
"Südsteiermark, Austria",Weingut & Buschenschank Christian u. Johann Zweytick,46.74017,15.55365,http://www.zweytick.at/
"Südsteiermark, Austria",Weingut Deutschmann vlg.Smonde,46.67202,15.53124,http://www.wein-deutschmann.at/
"Südsteiermark, Austria",Weingut NeueHeimat,46.69184,15.50745,http://www.neueheimat.wine/
"Südsteiermark, Austria",Weingut Holler,46.71145,15.61273,http://www.holler-weine.at/
"Südsteiermark, Austria",SKOFF ORIGINAL - Walter Skoff,46.70517,15.54902,http://www.skofforiginal.com/
"Südsteiermark, Austria",Weingut Kollerhof am Eichberg,46.688,15.44831,https://www.kollerhof.com/
"Südsteiermark, Austria",Weingut Karl & Gustav Strauss,46.69435,15.53338,http://www.weingut-strauss.at/
"Südsteiermark, Austria",Hirschmugl-Domaene,46.76475,15.52219,http://hirschmugl-domaene.at/
"Südsteiermark, Austria",Weingut Riegelnegg - Olwitschhof,46.69871,15.51856,http://www.riegelnegg.at/
"Südsteiermark, Austria",Weingut Malli,46.77202,15.46757,http://www.weingut-malli.at/
"Südsteiermark, Austria",Weingut-Buschenschank Kratzer,46.78046,15.50064,https://www.weingut-kratzer.at/
"Südsteiermark, Austria",Weingut & Buschenschank Tscheppe,46.67208,15.51465,http://www.buschenschank-tscheppe.at/
"Südsteiermark, Austria",Weingut Dietrich vlg. Tischler,46.70816,15.52002,http://www.weingut-dietrich.at/
"Südsteiermark, Austria",Tement GmbH,46.68618,15.61254,http://www.tement.at/
"Südsteiermark, Austria",Weingut Adam-Lieleg,46.70005,15.47852,http://www.adam-lieleg.at/
"Südsteiermark, Austria",Weingut Regele,46.71168,15.59704,https://www.regele.com/
"Südsteiermark, Austria",Weingut Erwin Sabathi,46.65151,15.48819,http://www.sabathi.com/
"Südsteiermark, Austria",Weingut Peter Skoff,46.71445,15.48704,http://www.peter-skoff.at/
"Südsteiermark, Austria",Weingut Assigal,46.76789,15.52062,http://www.assigal.at/
"Südsteiermark, Austria",Weingut Rothschädl,46.70648,15.45851,http://www.rothschaedl.com/
"Südsteiermark, Austria",Weingut Buschenschank Tinnauer,46.73301,15.51471,http://www.tinnauer.com/
"Südsteiermark, Austria",Weingut Steiner,46.72948,15.51203,http://www.weingut-steiner.at/
"Südsteiermark, Austria",Weingut Winzerzimmer Toso,46.68599,15.48472,
"Südsteiermark, Austria",Weinbau Menhart,46.77528,15.52523,http://www.weinbau-menhart.at/
"Südsteiermark, Austria",Weingut Marko,46.71319,15.57019,http://www.marko-weingut.at/
"Südsteiermark, Austria",Weingut Wohlmuth,46.75996,15.44573,https://www.wohlmuth.at/de/
"Südsteiermark, Austria",Weingut - Buschenschank Skoff Weinleiten,46.72447,15.56906,https://www.buschenschank.at/Gamlitz/Weingut-Herbert-Skoff
"Südsteiermark, Austria",Weingut Kapun,46.68884,15.49307,https://www.weingut-kapun.at/
"Südsteiermark, Austria",Weingut Winzerhof Strablegg,46.72526,15.42507,https://www.strablegg.at/
"Südsteiermark, Austria",Erzherzog Johann Weine Ehrenhausen - Klöch Weinkeller- u Handels GmbH & Co KG,46.72096,15.58636,https://erzherzog.shop/
"Südsteiermark, Austria",Weinbau Liener,46.72454,15.5221,http://www.weinbau-liener.at
"Südsteiermark, Austria",Weingut Harkamp - Villa Hollerbrand,46.77811,15.52712,https://harkamp.at/weingut
"Südsteiermark, Austria",Weingut Buschenschank Gästezimmer Adam-Schererkogl,46.7045,15.53093,http://www.adam-schererkogl.at/
"Südsteiermark, Austria",Weingut Stoff,46.77672,15.4353,http://www.weingutstoff.at/
"Südsteiermark, Austria",Weingut Schlafgut Genussgut MICHI LORENZ,46.77207,15.45061,http://www.michilorenz.at/
"Südsteiermark, Austria",Weingut Wutte,46.76014,15.44778,https://www.weingut-wutte.at/
"Südsteiermark, Austria",Weingut Kitzecker Reiterer,46.77139,15.45276,http://kitzecker-reiterer.at/
"Südsteiermark, Austria",Dreisiebner Stammhaus,46.6779,15.54858,http://www.dreisiebner.com/
"Südsteiermark, Austria","Weingut Eibenhof, Apollonia und Vinzenz Ertl",46.6696,15.54333,http://www.weinguteibenhof.at/
"Südsteiermark, Austria",Weingut Bockmoar,46.87211,15.49724,http://www.bockmoar.at/
"Südsteiermark, Austria",Weingut Firmenich,46.69208,15.59902,http://www.firmenich.at/
"Südsteiermark, Austria",Weingut Brolli-Arkadenhof,46.68358,15.54138,http://www.brolli.at/
"Südsteiermark, Austria",Weingut Masser,46.67413,15.49422,http://www.masser.cc/
"Südsteiermark, Austria",Brenner am Rossberg,46.66554,15.52011,http://www.weingut-brenner.at/
"Südsteiermark, Austria",Weingut und Buschenschank Fellner,46.66995,15.52232,http://www.weingut-fellner.at/
"Südsteiermark, Austria",Weingut Jöbstl Gamlitz,46.70991,15.53076,https://www.joebstl-weingut.at/
"Südsteiermark, Austria",Wieser Weine GesbR Weingut,46.68193,15.47756,http://wieser-weine.at/
"Südsteiermark, Austria",Weinhof Prettner,46.68389,15.56006,https://www.weinhofprettner.at/
"Südsteiermark, Austria",KÖGL . Weingut - Buschenschank - Winzerzimmer,46.68825,15.55782,http://www.weingut-koegl.com/
"Südsteiermark, Austria",Weingut Peter Grill,46.68468,15.47174,https://www.weingutgrill.at/
"Südsteiermark, Austria",Weingut Hannes Sabathi,46.71714,15.52133,http://www.hannessabathi.at/
"Südsteiermark, Austria","Weingut, Gästezimmer und Buschenschank Hack-Gebell",46.67526,15.53026,http://www.hack-gebell.at/
"Südsteiermark, Austria",Bioweingut Bleyweis,46.77867,15.47572,http://bleyweis.at/
"Südsteiermark, Austria",Weinhof Narat - Zitz,46.65363,15.50745,http://www.narat-zitz.at/
"Südsteiermark, Austria",KOLB Purkart Weingut- tavern Schneiderannerl,46.77578,15.4025,http://www.schneiderannerl.at/
"Südsteiermark, Austria",Weingut-Buschenschank Dietrich,46.79455,15.42918,http://www.buschenschank-dietrich.at/
"Südsteiermark, Austria",Weingut Felberjörgl,46.79227,15.42614,http://www.felberjoergl.at/
"Südsteiermark, Austria",Buschenschank Herbert Strauss,46.79826,15.46906,http://www.buschenschank-strauss.at/
"Südsteiermark, Austria",Weingut & Buschenschank Flurlweber,46.85155,15.49826,http://www.weingut-lenhard.at/
"Südsteiermark, Austria",Weingut Wruss,46.72747,15.50487,http://www.weingut-wruss.at/
"Südsteiermark, Austria",Buschenschank Bernhardtkeller - Weingut Pölzl,46.73744,15.36418,https://sites.google.com/view/poelzl-bernhardtkeller
"Südsteiermark, Austria",Weingut Lackner-Tinnacher,46.69616,15.53959,http://www.lackner-tinnacher.at/
"Südsteiermark, Austria",Weingut Werlitsch - Tscheppe Ewald u. Brigitte,46.65378,15.52222,http://www.werlitsch.com/
"Südsteiermark, Austria",Gut Moser - Weingut/Landhotel/Landhaus,46.62404,15.48414,http://www.weingut-moser.at/
"Südsteiermark, Austria",Weingut Sattlerhof GmbH,46.71331,15.53932,https://www.sattlerhof.at/
"Südsteiermark, Austria",Biodynamisches Weingut Schnabl Matthias,46.7099,15.53722,http://www.weingut-schnabl.at/
"Südsteiermark, Austria",Weingut Skringer,46.71181,15.43424,https://www.skringer.at/
"Südsteiermark, Austria",Weingut Hofer,46.76999,15.41368,http://www.hofer-weingut.at/
"Vulkanland Steiermark, Austria",Winery Stefan Potzinger,46.78337,15.5888,https://www.potzinger.at/weine/
"Vulkanland Steiermark, Austria",Wine Castle Family Thaller,47.05476,16.00662,https://www.weinschloss-thaller.at/
"Vulkanland Steiermark, Austria",Genussgut Krispel,46.80117,15.91603,http://www.krispel.at/
"Vulkanland Steiermark, Austria",Weingut LEITGEB Buschenschank,46.87536,15.89215,http://www.weingut-leitgeb.at/
"Vulkanland Steiermark, Austria",Weingut-Buschenschank Gründl - Labuttendorf,46.78905,15.63727,https://www.weingutgruendl.at/
"Vulkanland Steiermark, Austria",Buschenschank Weingut Erich Christiner,46.97138,15.94155,http://weingut-erich-christiner.at/
"Vulkanland Steiermark, Austria",Weingut Neumeister,46.80878,15.86336,http://www.neumeister.cc/
"Vulkanland Steiermark, Austria",Weinhof Locknbauer,46.80483,15.96004,https://www.locknbauer.at/
"Vulkanland Steiermark, Austria",Weingut Trummer,46.82627,15.6596,http://www.weingut-trummer.at/
"Vulkanland Steiermark, Austria",Weingut Edelsbrunner,46.78062,15.91108,http://www.weingut-edelsbrunner.at/
"Vulkanland Steiermark, Austria",Weingut Ploder - Rosenberg | Biologisch-Dynamisch | Demeter,46.78356,15.74882,http://www.ploder-rosenberg.at/
"Vulkanland Steiermark, Austria",Weingut Buschenschank Giessauf-Nell,46.77065,15.97256,http://www.giessauf-nell.at/
"Vulkanland Steiermark, Austria",Weingut Buschenschank Altenbacher,46.79292,15.92574,http://weingut-altenbacher.at/
"Vulkanland Steiermark, Austria",Winzerhotel und Weingut Kolleritsch,46.78438,15.94659,http://www.kolleritsch.at/
"Vulkanland Steiermark, Austria",Weingut Wolfgang Lang,47.20521,15.8131,http://www.langwein.at/
"Vulkanland Steiermark, Austria",Weingut Scheucher,46.78694,15.64073,http://www.weingut-scheucher.at/
"Vulkanland Steiermark, Austria",Weingut Frauwallner Straden,46.81127,15.88981,http://www.frauwallner.com/
"Vulkanland Steiermark, Austria",Siegl-Hof,46.98119,16.09218,https://www.siegl-hof.at/
"Vulkanland Steiermark, Austria",Weingut Winkler-Hermaden,46.88996,15.97905,https://winkler-hermaden.at/
"Vulkanland Steiermark, Austria",Brunner Weinhof - Buschenschank,47.0736,15.92836,http://www.weinhof.cc/
"Vulkanland Steiermark, Austria",Obst. Wein. Gut. Haas,46.86265,15.84266,http://www.obstbauhaas.at/
"Vulkanland Steiermark, Austria",Weingut Triebl,46.83044,15.93467,https://www.triebl.com/
"Vulkanland Steiermark, Austria",Weingut Gwaltl,46.9069,15.99108,https://www.weinhof-gwaltl.at/
"Vulkanland Steiermark, Austria",Weingut KRENN 49,47.01432,15.84045,http://www.krenn49.at/
"Vulkanland Steiermark, Austria",Weingut Pock,46.77582,15.88696,http://www.pock-wein.at/
"Vulkanland Steiermark, Austria",Weingut und Gästehaus Pfeifer,46.83891,15.96496,http://www.pfeifer-weingut.at/
"Vulkanland Steiermark, Austria",Weingut Suppan,46.92253,15.88028,http://www.weingut-suppan.at/
"Vulkanland Steiermark, Austria",Weinhof REICHMANN,46.79276,15.7994,https://www.reichmann.st/
"Vulkanland Steiermark, Austria",Palz Wein & Wohnen,46.81498,15.96616,http://www.weinbau-palz.at/home/index.php/kontakt-anfahrt/datenschutzerklaerung
"Vulkanland Steiermark, Austria",HERRENHOF LAMPRECHT,47.05427,15.80541,http://www.herrenhof.net/
"Vulkanland Steiermark, Austria",Weingut Engel,46.79022,15.95382,https://www.weingut-engel.at/
"Vulkanland Steiermark, Austria",Fischer Weingut,46.82735,15.95806,http://www.fischer-weine.at/
"Vulkanland Steiermark, Austria",Weinhof Seidl Manfred,46.82107,15.93377,http://www.weinhof-seidl.at/
"Vulkanland Steiermark, Austria",Vulkanland Sektmanufaktur,46.99113,15.90405,http://www.vulkanlandsekt.at/
"Vulkanland Steiermark, Austria",Weinbau List,46.77342,15.70773,http://www.listwein.at/
"Vulkanland Steiermark, Austria",Weinbau Lamprecht,46.75648,15.93582,https://www.weinbau-lamprecht.at/
"Vulkanland Steiermark, Austria",Weinhof Platzer,46.7904,15.95401,http://www.weinhof-platzer.at/
"Vulkanland Steiermark, Austria",Weingut-Buschenschank Maurer at Hohenberg,47.12143,15.72881,http://www.weingut-maurer.com/
"Vulkanland Steiermark, Austria",Kuruzzenschenke und Weinhof Konrad,46.91282,15.99299,http://www.kuruzzenschenke.at/
"Vulkanland Steiermark, Austria",Winzerhof Klöckl,46.77209,15.97605,http://www.steirer-weine.at/
"Vulkanland Steiermark, Austria",Weingut Dietl - Urlaub am Winzerhof,46.98888,15.87883,http://www.dietl-wein.at/
"Vulkanland Steiermark, Austria",Forstberg Vielfalt & Sektkellerei Forstberg,46.91307,15.93886,http://www.forstberg.at/
"Vulkanland Steiermark, Austria",Weingut Müller Klöch,46.77116,15.97279,http://weingut-mueller.at/
"Vulkanland Steiermark, Austria",Weingut Hutter,46.92245,15.86949,https://www.hutter-wein.at/
"Vulkanland Steiermark, Austria",Weinhof Fassold,46.80094,15.91449,http://www.fassold.at/
"Vulkanland Steiermark, Austria",Winzerei Eibel,47.01806,15.92639,https://www.eibel.at/
"Vulkanland Steiermark, Austria",Weingut - Buschenschank - Gästezimmer | Familie Pfeifer,46.82752,15.97051,http://www.weingut-pfeifer.at/
"Vulkanland Steiermark, Austria",Weinhof Rossmann,46.83288,15.77762,https://www.weinhof-rossmann.at/
"Vulkanland Steiermark, Austria",Weingut-Buschenschank Grabin,46.78848,15.63796,https://www.grabin.at/
"Vulkanland Steiermark, Austria",Weingut Buschenschank Silvia Bernhart,46.9989,15.94584,http://www.buschenschank-bernhart.at/buschenschank.php
"Vulkanland Steiermark, Austria",Frühwirth Weingut Buschenschank,46.78005,15.97513,http://www.fruehwirth.at/
"Vulkanland Steiermark, Austria",Weinbau Frühwirth,46.81105,15.96416,http://www.weinbau-fruehwirth.com/
"Vulkanland Steiermark, Austria",Urlaub am Weinbauernhof Amtmann,46.99993,15.94739,http://www.amtmann-urlaub.at/
"Vulkanland Steiermark, Austria",Weingut Michael am Rosenberg,47.18312,15.63437,https://www.weingut-michael.at/
"Vulkanland Steiermark, Austria",Weingut Gollenz,46.7773,15.93097,http://www.dergollenz.at/
"Vulkanland Steiermark, Austria",Weinhof Rauch,46.8085,15.77203,http://www.weinhof-rauch.at/
"Vulkanland Steiermark, Austria",Weingut Hopfer,46.79587,15.95024,https://www.hopfer-weine.at/
"Vulkanland Steiermark, Austria",Weinhof Neubauer,46.77499,15.94454,http://www.weinhof-neubauer.at/
"Vulkanland Steiermark, Austria",Weinhof Tomaschitz,46.77893,15.97566,https://www.gustoplatzl.at/
"Vulkanland Steiermark, Austria",Weingut Eiteljörg,47.21834,15.719,http://www.eiteljoerg.at/
"Vulkanland Steiermark, Austria",Kowald Wein - VINO.TAKE,46.99366,16.11323,http://www.kowald-wein.at/
"Vulkanland Steiermark, Austria",WeinGut Glatz - Bad Waltersdorf,47.17096,16.03223,https://www.glatz-wein.at/home
"Vulkanland Steiermark, Austria",Weingut Heinrich,47.07901,15.99335,https://byheinrich.com/
"Vulkanland Steiermark, Austria",Weingut Pichler,47.13849,16.02534,http://www.weinhof-pichler.com/
"Vulkanland Steiermark, Austria",Weinhof & Feiergut F.Kohl,47.08086,15.99183,http://www.kohl-weine.at/
"Vulkanland Steiermark, Austria",Weingut Monschein STRADEN | naturzimmer + biodynamische weine,46.82124,15.85554,https://www.wein-monschein.at/
"Vulkanland Steiermark, Austria",Weinbau Wurzinger,46.85106,15.89379,http://www.weinbau-wurzinger.at/
"Weststeiermark, Austria",Schilcherweinhof Klug-Krainer,46.85966,15.20604,
"Weststeiermark, Austria",Buschenschank,46.92125,15.23973,http://www.weingut-hiden.at/
"Weststeiermark, Austria",Weingut Trapl,46.93162,15.23842,http://www.weingut-trapl.at/
"Weststeiermark, Austria",Weingut Buschenschank Machater,46.94601,15.23445,http://www.machater.at/
"Weststeiermark, Austria",Weingut Wiedersilli,46.72575,15.25993,https://www.wiedersilli.at/
"Weststeiermark, Austria",Weingut Christian Reiterer,46.72895,15.26937,http://www.weingut-reiterer.com/
"Weststeiermark, Austria",Langmann Weingut Buschenschank,46.93376,15.21848,https://www.weingut-langmann.at/
"Weststeiermark, Austria",Weingut Seiner vlg Kraxner,46.93301,15.218,http://weinbauseiner.at
"Weststeiermark, Austria",Weingut und Buschenschank Haring v. Pichlippi,46.69981,15.25269,http://www.pichlippi.at/
"Weststeiermark, Austria",Weingut Jauk,46.73129,15.29361,http://www.jauk-wein.at/
"Weststeiermark, Austria",Weingut Strohmaier Thomas & Miss Rósy Genuss KG,46.73167,15.29324,http://www.strohmaier.schilcher.com/
"Weststeiermark, Austria",Weingut Mahler,46.82439,15.20492,https://www.weingut-mahler.at/
"Weststeiermark, Austria",Weingut und Buschenschank Lazarus,46.93296,15.21901,http://www.weingut-lazarus.at/
"Weststeiermark, Austria","Wein und Genusshof Stocker (Weinverkauf und Bauernladen, kein Buschenschankbetrieb))",47.02069,15.25965,http://www.buschenschank-stocker.at/
"Weststeiermark, Austria",Weingut und Buschenschank Klug-Voltl,46.92236,15.22507,http://www.klug-voltl.at/
