continent,country,city,name,latitude,longitude,website,extra
AF,Algeria,Alger,KAP AGHROM,36.50322,1.23109,,
AF,Algeria,Alger,KAP IGHROM,36.50575,1.21574,,
AF,ET,Addis Ababa,አዋሽ ወይን,9.0134,38.72745,https://www.awashwines.com/,16;2;509;35;7;1;269;12;4;28;10
AF,ET,Addis Ababa,Awash Wine | Mekanisa | አዋሽ ወይን | መካኒሳ,8.97569,38.73343,,
AF,ET,Addis Ababa,Awash Wine Kality Distribution | Kality | አዋሽ ዋይን ቃሊቲ ማሰራጫ | ቃሊቲ,8.93563,38.76138,http://awashwines.com/,
AF,Ethiopia,Awash Valley,Awash Wine Vineyard,8.6135,39.71546,,
AF,MA,El Hajeb,Château Roslane,33.75981,-5.43942,http://roslaneboutiquehotel.com/,
AF,MA,El Hajeb,Château Roslane Wine Cellars,33.76151,-5.44064,,
AF,MA,Essaouira,Le Domaine du Val d'Argan,31.53706,-9.54456,,
AF,Morocco,Berkane,Coopérative Vinicole Des Béni Snassen (Vinicoop),34.93137,-2.32688,,
AF,Morocco,Berkane,Sté Vinicoop,34.93059,-2.32401,,
AF,Morocco,Rharb,Volubilia-Domaine de la Zouina,33.7102,-5.46172,http://domainezouina.com/,
AF,Morocco,Rharb,Domaine de Baccari,33.75896,-5.71973,http://domainedebaccari.com/,
AF,Morocco,Rharb,Domaine Viticole Du Sais Up 5106,33.7198,-5.45356,,
AF,Morocco,Rharb,Domaine Viticole Du Zayane,33.74688,-5.54013,,
AF,Morocco,Rharb,Domaine Annexe du Docteur Abdellah MOFID,33.9068,-5.66207,http://a.mofid.free.fr/,
AF,Morocco,Rharb,Sté Coopérative Vinicole D'Aït Souala (S.C.V.A.),33.89408,-5.54458,,
AF,Morocco,Rharb,Lieu dit zghari parc,33.77761,-5.52307,,
AF,Morocco,Rharb,Domaine du Docteur ABDELLAH MOFID,33.90608,-5.60999,http://a.mofid.free.fr/,
AF,Morocco,Rharb,Svcm,33.90116,-5.53941,,
AF,Morocco,Zaër,Les domaines Amal,33.75822,-6.61567,http://www.domainesamal.ma/,
AF,Morocco,Zenata,Caves Thalvin domaine des ouled thaleb,33.61879,-7.18831,,
AF,Morocco,Zenata,Domaine Ouled Thaleb,33.61873,-7.18879,,
AF,South Africa,Agter-Paarl,Perdeberg Cellar,-33.65813,18.82635,http://www.perdeberg.co.za/,
AF,South Africa,Agter-Paarl,Leeuwenkuil Family Vineyards,-33.66362,18.85124,http://www.leeuwenkuilfv.co.za/,
AF,South Africa,Agter-Paarl,Eenzaamheid Wines,-33.74771,18.8352,http://www.eenzaamheidwines.co.za/contact-us/,
AF,South Africa,Agter-Paarl,Black Pearl Wines,-33.73884,18.89257,http://www.blackpearlwines.com/,
AF,South Africa,Agterkliphoogte,Mountainview Vineyards,-33.96721,19.58445,https://mountainviewvineyards.com/,2;1;67;21;0;28;821;5
AF,South Africa,Agterkliphoogte,Windfall Wine Farm,-33.94306,19.64496,,
AF,South Africa,Ashton,Excelsior Wine Estate,-33.85539,20.00755,http://www.excelsior.co.za/,
AF,South Africa,Ashton,Ashton Winery,-33.83753,20.03096,http://www.ashtonwinery.com/,
AF,South Africa,Ashton,Kleinhoekkloof Wines,-33.78155,20.05399,http://www.kleinhoekkloof.co.za/,
AF,South Africa,Ashton,Zandvliet Wine Estate,-33.84676,20.03855,https://zandvliet.co.za/,2;20;134;7;67;4;507;0;28;10;5
AF,South Africa,Ashton,Arabella Wines,-33.84112,20.01052,http://www.arabellawines.com/,
AF,South Africa,Ashton,Running Stream Wines,-33.86007,20.12707,http://www.runningstream.co.za/,
AF,South Africa,Ashton,Wine Estate - Ashton Winery,-33.82511,20.05971,,
AF,South Africa,Bamboes Bay,Fryer's Cove Vineyard,-31.81631,18.23277,http://www.fryerscove.co.za/,
AF,South Africa,Banghoek,Tokara Wine Estate,-33.91807,18.92092,http://www.tokara.com/,
AF,South Africa,Banghoek,Rainbow's End Wine Estate,-33.93535,18.946,http://www.rainbowsend.co.za/,
AF,South Africa,Banghoek,Le Pommier Wine Estate,-33.91872,18.92873,http://www.lepommier.co.za/,
AF,South Africa,Banghoek,Zorgvliet Wine Estate,-33.91453,18.93552,http://www.zorgvlietwines.com/,
AF,South Africa,Banghoek,SilverKloof Estate,-33.91239,18.9406,,
AF,South Africa,Banghoek,Oldenburg Vineyards,-33.92945,18.94623,https://oldenburgvineyards.com/,6;2;7;1;4;0;28;61
AF,South Africa,Banghoek,MolenVliet Vineyards,-33.91344,18.94011,http://www.molenvliet.co.za/,
AF,South Africa,Banghoek,Delaire Graff Estate,-33.9203,18.92183,http://www.delaire.co.za/,
AF,South Africa,Banghoek,Bartinney Private Cellar,-33.92632,18.93242,http://www.bartinney.co.za/,
AF,South Africa,Blouvlei,Mont Du Toit Wines,-33.65772,19.02955,http://www.montdutoitwines.co.za/,
AF,South Africa,Blouvlei,Diemersfontein Wine & Country Estate,-33.66156,19.00699,http://www.diemersfontein.co.za/,
AF,South Africa,Blouvlei,Kruishof Wines,-33.64048,19.00966,http://kruishofwines.com/,
AF,South Africa,Blouvlei,Welgegund,-33.65875,19.03436,http://welgegund.co.za/,
AF,South Africa,Blouvlei,Upland Organic Estate,-33.66809,19.04274,http://www.organicwine.co.za/,
AF,South Africa,Blouvlei,Dynamic Wine Solutions,-33.64208,19.01163,http://dynamicwinesolutions.co.za/,
AF,South Africa,Blouvlei,Imbuko Wines,-33.67562,19.0219,http://www.imbuko.co.za/,
AF,South Africa,Bonnievale,Esona Boutique Wine Estate,-33.90449,20.01142,https://esona.co.za/,
AF,South Africa,Bonnievale,Silverthorn Wines,-33.93012,20.03096,http://www.silverthornwines.co.za/,
AF,South Africa,Bonnievale,Weltevrede Wine Estate,-33.94215,20.05198,http://weltevrede.com/,
AF,South Africa,Bonnievale,Bonnievale Wines,-33.95767,20.10178,https://bonnievalewines.co.za/,
AF,South Africa,Bonnievale,Arendsig Hand Crafted Wines,-33.9261,20.01393,http://www.arendsig.co.za/,
AF,South Africa,Bonnievale,Bushmanspad Estate,-33.89915,20.19668,http://www.bushmanspad.co.za/,
AF,South Africa,Bonnievale,Goedverwacht Wine Estate,-33.92067,20.0043,https://goedverwacht.co.za/,
AF,South Africa,Bonnievale,Lozarn Wines,-33.96719,20.13687,https://lozarn.co.za/,6;2;128;9;1;21;0;5
AF,South Africa,Bonnievale,RiverGold,-33.93094,20.01372,http://rivergold.co.za/,
AF,South Africa,Bonnievale,Cape Wine Crafters,-33.94186,20.05252,https://capewinecrafters.com/,3;2;1;4;0;50;10
AF,South Africa,Bonnievale,Lucerne Vineyards,-33.96803,20.13873,http://www.lozarn.co.za/,
AF,South Africa,Bonnievale,Langverwacht Wynmakery BPK,-33.9586,20.02636,http://www.langverwachtwines.co.za/,
AF,South Africa,Bonnievale,Van Zylshof Estate,-33.93858,20.10654,,
AF,South Africa,Bonnievale,Janeza Winery,-33.95975,20.02759,http://www.janeza.co.za/,
AF,South Africa,Bot River,Beaumont Wines,-34.22396,19.20653,http://www.beaumont.co.za/,
AF,South Africa,Bot River,Arcangeli Wines,-34.23535,19.20886,http://www.arcangeliwines.com/,
AF,South Africa,Bot River,Beaumont Family Wines,-34.22567,19.20712,http://www.beaumont.co.za/,
AF,South Africa,Bot River,Wildekrans Wine Estate,-34.24032,19.19853,http://www.wildekrans.com/,
AF,South Africa,Bot River,Gabrielskloof Wine Estate,-34.23873,19.24959,http://www.gabrielskloof.co.za/,
AF,South Africa,Bot River,Die Seerowers | Lifestyle Wine,-34.26286,19.17707,http://www.villionwines.com/,
AF,South Africa,Bot River,Luddite Wine Farm,-34.21443,19.20704,https://luddite.co.za/,6;2;7;18;21;0;28;5;8
AF,South Africa,Bot River,Momento Wines,-34.26015,19.22178,http://momentowines.co.za/,
AF,South Africa,Bot River,Villion Wine Tasting,-34.26131,19.1749,,
AF,South Africa,Bot River,Anysbos,-34.25403,19.23809,https://anysbos.co.za/,
AF,South Africa,Bot River,Benguela Cove Lagoon Wine Estate,-34.34586,19.13473,https://www.benguelacove.co.za/,
AF,South Africa,Bot River,Benguela Cove Cellar Door,-34.34649,19.13438,https://www.benguelacove.co.za/cellar-door,3;6;2;9;1;18;14;67;4;0;5;42;8
AF,South Africa,Bot River,Barton Vineyards & Villas,-34.26491,19.18023,http://www.bartonvineyards.co.za/,
AF,South Africa,Bot River,Escape Wines,-34.3422,19.156,http://escwines.com/,
AF,South Africa,Bot River,Paardenkloof Estate Wines (Pty) Ltd,-34.26225,19.18392,http://www.paardenkloof.co.za/,
AF,South Africa,Bot River,PaardenKloof Wine Tasting Room at Ecology Lifestyle Farm,-34.26027,19.18343,http://www.paardenkloof.co.za/,
AF,South Africa,Bottelary,Devon Rocks Wines and B&B,-33.88869,18.80856,http://www.devonrocks.co.za/,
AF,South Africa,Bottelary,Goede Hoop Wine Estate,-33.90958,18.75536,http://www.goedehoop.co.za/,
AF,South Africa,Bottelary,Koopmanskloof Winery,-33.9002,18.76093,http://www.koopmanskloof.co.za/,
AF,South Africa,Bottelary,Groenland Wyne,-33.89668,18.73512,http://www.groenland.co.za/,
AF,South Africa,Bottelary,Mooiplaas Wine Estate and Private Nature Reserve,-33.92094,18.74012,http://www.mooiplaas.co.za/,
AF,South Africa,Bottelary,Fort Simon Wine Estate,-33.91961,18.75513,http://www.fortsimon.com/,
AF,South Africa,Bottelary,Hartenberg Wine Estate,-33.89807,18.792,https://hartenbergestate.com/,
AF,South Africa,Bottelary,Hazendal Wine Estate,-33.89895,18.71664,http://www.hazendal.co.za/,
AF,South Africa,Bottelary,Kaapzicht Wine Estate,-33.91334,18.73713,http://www.kaapzicht.co.za/,
AF,South Africa,Bottelary,Bellevue Wine Estate,-33.87822,18.7618,http://www.bellevue.co.za/,
AF,South Africa,Bottelary,Hazendal winery,-33.90035,18.72015,,
AF,South Africa,Bovlei,"Bosman Family Vineyards, Lelienfontein Farm, Wellington, South Africa",-33.62646,19.02459,http://www.bosmanwines.com/,
AF,South Africa,Bovlei,Andreas Guest House,-33.63193,19.04254,http://www.andreas.co.za/,
AF,South Africa,Bovlei,Napier Vineyards,-33.63889,19.03782,http://www.napier-vineyards.co.za/,
AF,South Africa,Bovlei,Wellington Wines Tasting Room,-33.63854,19.03165,http://www.wellingtonwines.com/,
AF,South Africa,Bovlei,Welvanpas Family Vineyards,-33.63335,19.06965,,
AF,South Africa,Bovlei,NABYGELEGEN PRIVATE CELLAR,-33.63193,19.06441,http://www.nabygelegen.co.za/,
AF,South Africa,Bovlei,The Vineyard Cottage,-33.62136,19.03002,,
AF,South Africa,Bovlei,Onverwacht Family Farm PTY,-33.62697,19.04575,http://www.onverwacht.com/,
AF,South Africa,Bovlei,Bosman Adama Grapevines and Plant Improvement,-33.62507,19.02668,https://bosmanadama.co.za/,16;1160;3;630;177;6;2;20;149;134;183;73;7;9;1;27;14;67;269;12;21;41;15;529;730;69;19;131;0;735;28;51;744;821;151;34;473;169;10;92;135;120;24;11;5;13;95;89;8;815
AF,South Africa,Breedekloof,Rico Suter Wines - Country House,-33.52746,19.2538,,
AF,South Africa,Breedekloof,Botha Wine Cellar / Kelder,-33.56679,19.25767,http://www.bothakelder.co.za/,
AF,South Africa,Breedekloof,Bergsig Wine Estate Icarus,-33.51906,19.19277,http://www.bergsig.co.za/,
AF,South Africa,Breedekloof,Mountain Ridge Winery,-33.47381,19.20248,https://mountainridge.co.za/,2;1;21;28;5
AF,South Africa,Breedekloof,Waboomsrivier Wine Cellar,-33.52964,19.20956,https://www.wabooms.com/,2;67;21;28;10;5
AF,South Africa,Breedekloof,Seven Oaks Winery,-33.52861,19.23073,http://www.sevenoaks.co.za/,
AF,South Africa,Breedekloof,Bosjes Manor House,-33.5536,19.26878,http://www.bosjes.co.za/,
AF,South Africa,Breedekloof,Silkbush Mountain Vineyards,-33.50281,19.26781,http://www.silkbush.com/,
AF,South Africa,Breedekloof,Romansrivier Farm,-33.46901,19.21477,,
AF,South Africa,Breedekloof,Lateganskop Wynkelder,-33.51503,19.18655,,
AF,South Africa,Breedekloof,De Hoop Plaas,-33.42918,19.23438,http://www.dekeur.co.za/,
AF,South Africa,Breedekloof,La Plaisante Estate,-33.45632,19.2085,,
AF,South Africa,Buffeljags,Olivedale Private Vineyards,-34.08533,20.49998,https://olivedalevineyards.com/,7;9;4;15;69;0;10;5;89
AF,South Africa,Buffeljags,Tangelo Citrus Estate,-34.0499,20.53356,,
AF,South Africa,Calitzdorp,De Krans Wines,-33.54036,21.68409,http://www.dekrans.co.za/,
AF,South Africa,Calitzdorp,Calitzdorp Wine Cellar,-33.53823,21.68602,http://www.calitzdorpwine.co.za/,
AF,South Africa,Calitzdorp,TTT Cellars,-33.53081,21.69574,http://www.tttcellars.co.za/,
AF,South Africa,Calitzdorp,Peter Bayly Wines,-33.45498,21.75992,http://www.peterbayly.co.za/,
AF,South Africa,Calitzdorp,Du'SwaRoo,-33.51611,21.69394,http://www.duswaroo.co.za/,
AF,South Africa,Calitzdorp,Axe Hill Winery (Pty) Ltd,-33.51653,21.68957,http://www.axehill.co.za/,
AF,South Africa,Cango Valley,Karusa Premium Wines & Craft Brewery,-33.47656,22.24326,http://www.karusa.co.za/,
AF,South Africa,Cape Agulhas,Lomond Wine Estate - Gansbaai,-34.56614,19.48309,https://www.lomond.co.za/,3;2;1;18;4;0;28;5;42;8
AF,South Africa,Cape South Coast,Elandskloof,-34.43549,19.80105,,
AF,South Africa,Cape South Coast,ReedValley,-34.16743,22.01825,http://www.reedvalley.com/,
AF,South Africa,Cape South Coast,NLR WINES,-33.98152,22.45498,,
AF,South Africa,Cape South Coast,Corner Emporium Winery And Deli,-33.95517,22.39518,,
AF,South Africa,Cape South Coast,Tenuta GioMaLi,-34.04275,22.92518,https://www.facebook.com/tenutagiomali,368;28;22
AF,South Africa,Cape South Coast,Knysna Vineyard Church,-34.04393,23.07155,http://www.knysnavineyard.org/,
AF,South Africa,Cape South Coast,Baleia Wines & Olive oil,-34.10973,21.25497,https://www.baleiawines.com/,
AF,South Africa,Cape Town,Constantia Uitsig Wine Estate,-34.04752,18.42484,http://uitsig.co.za/contact/,
AF,South Africa,Cape Town,Cape Point Vineyards,-34.09887,18.38322,http://www.cpv.co.za/,
AF,South Africa,Cape Town,Cape Point Vineyards Restaurant,-34.094,18.3875,http://www.cpv.co.za/,
AF,South Africa,Cape Town,The Vineyard,-33.97904,18.4587,http://www.vineyard.co.za/,
AF,South Africa,Cape Town,CONSTANTIA WINE ROUTE,-34.04433,18.42931,http://constantiawineroute.com/,
AF,South Africa,Cape Town,Rosendal Wines,-33.88294,18.63535,,
AF,South Africa,Cape Town,Savage Wines,-33.92928,18.46514,https://www.savagewines.com/,
AF,South Africa,Cape Town,Mellish Family Vineyards,-33.80585,18.55953,https://mellishvineyards.com/,3;67;4;28
AF,South Africa,Cape Town,Dorrance Winery,-33.92034,18.41846,http://dorrancewines.com/,
AF,South Africa,Cape West Coast,Groote Post Winery,-33.4832,18.4101,http://www.grootepost.co.za/,
AF,South Africa,Cape West Coast,Forest Friends,-32.91703,17.98238,http://forestfriend.co.za/,
AF,South Africa,Cape West Coast,House of Blake's,-33.34327,18.17116,http://www.blakefamilywines.com/,
AF,South Africa,Central Drakensberg,Cathedral Peak Wine Estate,-28.84059,29.45297,http://www.cathpeakwines.com/,
AF,South Africa,Ceres,Koelfontein Wines,-33.24675,19.33369,https://koelfontein.co.za/what-we-do/wine/,
AF,South Africa,Ceres,"Die Kloof, Koelfontein",-33.24803,19.3269,https://koelfontein.co.za/,2;1;21;0
AF,South Africa,Ceres,Koelfontein Estate (Pty) Ltd,-33.26511,19.33175,http://www.koelfontein.co.za/,
AF,South Africa,Ceres Plateau,Klondyke Cherry Farm,-33.31511,19.5815,https://www.cherryfarm.co.za/,
AF,South Africa,Citrusdal Valley,Platkloof - Citrusdal,-32.77439,19.07524,,
AF,South Africa,Constantia,Klein Constantia Estate,-34.03855,18.4134,http://www.kleinconstantia.com/,
AF,South Africa,Constantia,Steenberg Tasting Room,-34.07544,18.423,http://www.steenbergfarm.com/,
AF,South Africa,Constantia,Constantia Glen,-34.01471,18.41473,http://www.constantiaglen.com/,
AF,South Africa,Constantia,Groot Constantia-Trust,-34.02673,18.42473,https://www.grootconstantia.co.za/,617;3;6;2;39;9;1;67;4;0;313;224;10;5
AF,South Africa,Constantia,High Constantia Wine Cellar,-34.02536,18.42689,http://www.highconstantia.co.za/,
AF,South Africa,Constantia,Eagles' Nest Wines,-34.01509,18.41513,http://www.eaglesnestwines.com/,
AF,South Africa,Constantia,Buitenverwachting,-34.04137,18.41691,http://www.buitenverwachting.com/,
AF,South Africa,Constantia,Constantia Mist,-34.01519,18.41522,https://constantiamist.co.za/,
AF,South Africa,Constantia,Constantia Uitsig,-34.04553,18.42024,http://uitsig.co.za/,
AF,South Africa,Constantia,"Constantia Royale, Nova Zonnestraal - Wine sold on our website",-34.00796,18.45028,http://www.constantiaroyale.co.za/,
AF,South Africa,Constantia,Silvestre Wines,-34.01073,18.40703,http://silvestrewines.com/,
AF,South Africa,Constantia,Beau Constantia,-34.01367,18.40646,http://www.beauconstantia.com/,
AF,South Africa,Devon Valley,Louisvale Wines,-33.90912,18.80746,http://www.louisvale.com/,
AF,South Africa,Devon Valley,Clos Malverne Wine Farm,-33.91079,18.81488,http://www.closmalverne.co.za/,
AF,South Africa,Devon Valley,J.C Le Roux,-33.90417,18.81036,http://www.jcleroux.co.za/,
AF,South Africa,Devon Valley,Aaldering Vineyards & Wines,-33.91968,18.82778,http://www.aaldering.co.za/,
AF,South Africa,Devon Valley,Botanica Wines,-33.90526,18.82177,http://www.botanicawines.com/,
AF,South Africa,Devon Valley,Meinert Wines,-33.90062,18.81425,http://www.meinertwines.com/,
AF,South Africa,Devon Valley,Le Grand Domaine,-33.90264,18.80695,http://www.granddomaine.co.za/,
AF,South Africa,Devon Valley,The Hills Wine,-33.91506,18.81333,http://www.thehillswine.com/,
AF,South Africa,Devon Valley,DEVONAIR BOUTIQUE WINE ESTATE,-33.89522,18.81103,,
AF,South Africa,Devon Valley,Stellenview Premium Wines,-33.90004,18.80651,http://www.stellenview.co.za/,
AF,South Africa,Devon Valley,Wine Estate - Sylvanvale Vineyards,-33.90283,18.81424,,
AF,South Africa,Devon Valley,Glen Mira Family Wines,-33.90507,18.8001,http://www.glenmira.com/,
AF,South Africa,Devon Valley,Middelvlei Wine Estate,-33.92813,18.83264,http://www.middelvlei.co.za/,
AF,South Africa,Devon Valley,Sylvanvale Vineyards,-33.9034,18.81552,,
AF,South Africa,Douglas,Landzicht Winery,-29.06585,23.76867,http://www.landzicht.co.za/,
AF,South Africa,Durbanville,De Grendel Wine Estate and Restaurant,-33.85137,18.57162,https://www.degrendel.co.za/,
AF,South Africa,Durbanville,Meerendal Wine Estate,-33.79902,18.62399,https://meerendal.co.za/,
AF,South Africa,Durbanville,Durbanville Hills Winery,-33.82493,18.56581,http://www.durbanvillehills.co.za/,
AF,South Africa,Durbanville,Klein Roosboom Boutique Winery,-33.82032,18.57466,http://www.kleinroosboom.co.za/,
AF,South Africa,Durbanville,Diemersdal Wine Estate,-33.80257,18.64606,http://www.diemersdal.co.za/,
AF,South Africa,Durbanville,Nitida Wine Farm,-33.83586,18.59163,http://www.nitida.co.za/,
AF,South Africa,Durbanville,Bloemendal Wine Estate,-33.84027,18.60107,https://bloemendalestate.co.za/,2;9;1;67;4;0;5;42
AF,South Africa,Durbanville,Groot Phesantekraal Wines & Restaurant,-33.7966,18.67078,http://www.grootphesantekraal.co.za/,
AF,South Africa,Durbanville,Canto Boutique Wines,-33.8058,18.62419,http://cantowines.co.za/,
AF,South Africa,Durbanville,D'Aria Winery,-33.84113,18.61088,http://www.dariawinery.co.za/,
AF,South Africa,Durbanville,Hillcrest Estate,-33.82701,18.59051,http://www.hillcrestfarm.co.za/,
AF,South Africa,Durbanville,Maastricht Wines,-33.83943,18.59047,http://www.maastricht.co.za/,
AF,South Africa,Durbanville,Loch Lynne farm,-33.77875,18.64098,http://www.lochlynne.co.za/,
AF,South Africa,Durbanville,Altydgedacht,-33.84743,18.62464,,
AF,South Africa,Durbanville,Arno Smith Wine,-33.82721,18.59017,http://arnosmithwine.co.za/,
AF,South Africa,Durbanville,Hooggelegen Offices,-33.81845,18.61519,http://www.signalgun.com/,
AF,South Africa,Durbanville,Russo Wines,-33.80952,18.62482,http://www.russowines.co.za/,
AF,South Africa,Elgin,Almenkerk Wine Estate,-34.21341,19.03245,http://www.almenkerk.co.za/,
AF,South Africa,Elgin,Elgin Vintners Wines & 4-Star Country Guest House,-34.18648,19.0227,http://elginvintners.co.za/,
AF,South Africa,Elgin,Oneiric Wines,-34.24208,19.05138,http://www.oneiric.co.za/,
AF,South Africa,Elgin,Charles Fox Cap Classique Wine Estate,-34.23757,19.07831,http://www.charlesfox.co.za/,
AF,South Africa,Elgin,Oak Valley Estate,-34.15504,19.04622,https://oakvalley.co.za/?utm_source=GMB&utm_medium=google,3;6;2;149;1;706;21;0;26;135;11;5;13
AF,South Africa,Elgin,Paul Clüver Family Wines,-34.16903,19.08504,http://www.cluver.com/,
AF,South Africa,Elgin,Highlands Road Estate,-34.23465,19.07012,http://www.highlandsroadestate.co.za/,
AF,South Africa,Elgin,Iona Wines,-34.27871,19.08269,https://www.iona.co.za/,
AF,South Africa,Elgin,Shannon Vineyards & Wines,-34.18362,18.9854,https://shannonwines.com/,
AF,South Africa,Elgin,Radford Dale,-34.20226,19.00501,http://www.radforddale.com/,
AF,South Africa,Elgin,HANNAY WINES,-34.18279,19.03788,http://hannay.co.za/,
AF,South Africa,Elgin,South Hill Vineyards,-34.23485,19.10917,https://southhill.co.za/,16;3;2;4;0;5
AF,South Africa,Elgin,Lothian Vineyards,-34.19157,18.98059,http://www.lothianvineyards.com/,
AF,South Africa,Elgin,Spioenkop Wines,-34.24033,19.05609,http://www.spioenkopwines.co.za/,
AF,South Africa,Elgin,De Rust Estate - Grabouw,-34.16854,19.08566,,
AF,South Africa,Elgin,Richard Kershaw Wines,-34.15086,19.02679,https://kershawwines.com/,3;7;4;0;5
AF,South Africa,Elim,Strandveld Vineyards,-34.66258,19.78943,http://www.strandveld.co.za/,
AF,South Africa,Elim,Zoetendal Vineyards & River Estate,-34.60042,19.79098,https://www.zoetendal.co.za/,6;2;9;1;14;21;28;5
AF,South Africa,Elim,Black OysterCatcher Wines,-34.63247,19.82736,https://blackoystercatcher.co.za/,2;378;1;21;5
AF,South Africa,Elim,Black Oystercatcher Wines,-34.63254,19.8271,https://blackoystercatcher.co.za/,2;378;1;21;5
AF,South Africa,Franschhoek,Paserene Wine Farm & Wine Tasting in Franschhoek,-33.87898,19.05895,https://paserene.com/,
AF,South Africa,Franschhoek,Haute Cabrière - the home of Pierre Jourdan,-33.91421,19.13565,https://www.cabriere.co.za/,
AF,South Africa,Franschhoek,Rickety Bridge Estate,-33.8985,19.09085,http://www.ricketybridge.com/,
AF,South Africa,Franschhoek,Leopard’s Leap Restaurant & Wine Farm,-33.88585,19.08021,https://leopardsleap.co.za/,3;6;2;149;183;7;9;1;14;67;269;21;0;28;10;5
AF,South Africa,Franschhoek,La Bri Wine Estate,-33.92034,19.12058,http://www.labri.co.za/,
AF,South Africa,Franschhoek,Grande Provence Wine Estate - The Winery,-33.89806,19.10266,http://www.grandeprovence.co.za/,
AF,South Africa,Franschhoek,Eikehof Wines,-33.88097,19.06433,http://www.eikehof.com/,
AF,South Africa,Franschhoek,GlenWood Vineyards,-33.9133,19.08711,http://www.glenwoodvineyards.co.za/,
AF,South Africa,Franschhoek,Stony Brook Vineyards,-33.93982,19.12239,http://www.stonybrook.co.za/,
AF,South Africa,Franschhoek,Maison Estate,-33.88686,19.07626,http://www.maisonestate.co.za/?utm_source=google&utm_medium=organic%20&utm_content=maison&utm_campaign=GMB,
AF,South Africa,Franschhoek,Topiary Wine Estate,-33.86546,19.04584,https://www.topiarywines.co.za/,
AF,South Africa,Franschhoek,Le Lude Estate and Orangerie Restaurant,-33.91427,19.1283,https://lelude.co.za/,
AF,South Africa,Franschhoek,Dieu Donné Vineyards Cellar & Tasting Room,-33.89619,19.12851,http://www.dieudonnevineyards.com/,
AF,South Africa,Franschhoek,Lynx Wine Estate,-33.86276,19.03717,http://www.lynx-collection.com/,
AF,South Africa,Franschhoek,Boschendal Wine Estate,-33.87749,18.97273,https://www.boschendal.com/?utm_source=google_maps&utm_medium=website_button&utm_campaign=SP&utm_content=SP,
AF,South Africa,Franschhoek,La Motte Wine Farm,-33.88229,19.07185,https://www.la-motte.com/,
AF,South Africa,Franschhoek,Haut Espoir,-33.93989,19.10607,http://www.hautespoir.com/,
AF,South Africa,Franschhoek,Klein Goederust Wine Farm,-33.88816,19.09079,https://kleingoederust.co.za/,
AF,South Africa,Franschhoek,Boekenhoutskloof Winery,-33.94258,19.10801,http://www.boekenhoutskloof.co.za/,
AF,South Africa,Franschhoek,Allee Bleue Wine Estate,-33.86414,18.97869,http://www.alleebleue.co.za/,
AF,South Africa,Franschhoek,Backsberg Family Wines,-33.90579,19.11071,https://backsberg.co.za/,
AF,South Africa,Franschhoek,Solms Delta Wine Estate,-33.86341,18.99131,https://www.solmsdelta.co/,
AF,South Africa,Franschhoek,Boschendal Accommodation,-33.87679,18.97434,https://www.boschendal.com/accommodation/,
AF,South Africa,Franschhoek,Leeu Passant Winery,-33.9091,19.10375,https://mlfwines.com/discover-leeu-passant/,
AF,South Africa,Franschhoek,Chamonix Wine Farm,-33.89961,19.1275,http://www.chamonix.co.za/,
AF,South Africa,Franschhoek,Holden Manz Wine Estate,-33.93522,19.11513,http://holdenmanz.com/,
AF,South Africa,Franschhoek,Anthonij Rupert - Tasting Room,-33.88733,19.02048,,
AF,South Africa,Franschhoek,Cellar Door Wine Tasting at Boschendal,-33.88534,18.96961,https://www.boschendal.com/eat-drink/cellar-door/?utm_source=google_maps&utm_medium=website_button&utm_campaign=SP&utm_content=SP,
AF,South Africa,Franschhoek,Terra Del Capo - Tasting Room,-33.88163,19.0242,http://www.rupertwines.com/,
AF,South Africa,Franschhoek,The Werf Wine Tasting,-33.87487,18.97584,https://boschendal.com/experiences/werf-wine-tasting/,
AF,South Africa,Franschhoek,Pigcasso,-33.89826,19.11678,http://www.pigcasso.org/,
AF,South Africa,Franschhoek,Anthonij Rupert Wine Farm,-33.88051,19.02416,http://www.rupertwines.com/,
AF,South Africa,Franschhoek,Black Elephant Vintners,-33.90263,19.12179,http://www.bevintners.co.za/,
AF,South Africa,Franschhoek,La Bourgogne Farm,-33.92596,19.11945,,
AF,South Africa,Franschhoek,Colmant Cap Classique and Champagne,-33.92198,19.12501,https://www.colmant.co.za/,3;46;0
AF,South Africa,Franschhoek,Atlas Swift,-33.88842,19.08306,http://www.atlasswift.co.za/,
AF,South Africa,Franschhoek,La Provence Winery,-33.89339,19.09146,http://laprovencevineyards.com/,
AF,South Africa,Franschhoek,Old Road Wine Co.,-33.90386,19.11024,https://www.oldroadwinecompany.com/,3;149;67;4;0;28;5
AF,South Africa,Franschhoek,L'Ormarins Wine Estate,-33.8798,19.003,https://www.rupertwines.com/farms.php?farms_id=1,3;6;2;20;149;183;7;9;1;14;67;12;4;604;69;0;28;66;37;10;634;22;31;5;95;8
AF,South Africa,Franschhoek,Le Vallon Farm,-33.9188,19.12574,http://www.levallonfarm.com/,
AF,South Africa,Franschhoek,Anthonij Rupert Wines - Head Office,-33.88312,19.00394,http://www.rupertwines.com/,
AF,South Africa,Franschhoek,Landau,-33.91855,19.1179,,
AF,South Africa,Goedemoed,Bon Courage Wine Estate,-33.84563,19.96055,http://www.boncourage.co.za/,
AF,South Africa,Goedemoed,Robertson Winery,-33.81074,19.88151,http://www.robertsonwinery.co.za/,
AF,South Africa,Goedemoed,Springfield Estate,-33.83691,19.91534,http://www.springfieldestate.com/,
AF,South Africa,Goedemoed,Cloverfield Estate,-33.83294,19.92595,,
AF,South Africa,Goedemoed,Buitehof Wine Estate,-33.83936,19.86841,,
AF,South Africa,Goree,Graham Beck Estate,-33.80073,19.80008,http://www.grahambeck.com/,
AF,South Africa,Goudini,Du Toitskloof Wines,-33.70257,19.26898,http://www.dutoitskloof.co.za/,
AF,South Africa,Goudini,Huis Te Merwede,-33.69369,19.33778,http://www.merwida.com/,
AF,South Africa,Goudini,Merwida Wine Cellar (Production Facility),-33.69025,19.34154,https://www.merwida.com/,16;2;67;0;28;50;22;5
AF,South Africa,Goudini,uniWines Vineyards - Sneeukop & Goudini Wines,-33.69331,19.32108,http://breedekloof.com/item/goudini-wines/,
AF,South Africa,Goudini,Deetlefs Wine Estate,-33.69142,19.30479,https://deetlefs.com/,3;2;9;1;67;21;0;28;10;5;42;8
AF,South Africa,Goudini,Du Preez Estate,-33.69433,19.2847,http://www.dupreezestate.co.za/,
AF,South Africa,Goudini,uniWines Vineyards - Daschbosch,-33.72099,19.34946,http://www.uniwines.co.za/,
AF,South Africa,Goudini,Stofberg Family Vineyards,-33.67183,19.31009,http://www.lebellerebelle.com/,
AF,South Africa,Goudini,Jason’s Hill Private Cellar,-33.66256,19.23794,http://www.jasonshill.co.za/,
AF,South Africa,Goudini,Eensgevonden Vineyard Cottages,-33.71007,19.37028,,
AF,South Africa,Goudmyn,Viljoensdrift,-33.8689,19.9858,http://www.viljoensdrift.co.za/,
AF,South Africa,Goudmyn,Van Loveren Family Vineyards,-33.87537,20.00274,http://www.vanloveren.co.za/,
AF,South Africa,Goudmyn,De Wetshof Estate,-33.87723,20.00986,http://www.dewetshof.com/,
AF,South Africa,Greyton,"Swallow Hill Wine Estate, Dwarskloof Farm, Krige Road, Nr Greyton",-34.10278,19.61085,http://www.swallowhill.co.za/,
AF,South Africa,Greyton,Delphin Wines,-34.10346,19.65824,http://www.delphinwines.co.za/,
AF,South Africa,Greyton,Lismore Estate Vineyards,-34.07361,19.68807,http://www.lismore.co.za/,
AF,South Africa,Greyton,Lismore Tasting Room,-34.05157,19.60747,http://www.lismore.co.za/,
AF,South Africa,Groenberg,Welbedacht Wine Estate/Schalk Burger & Sons,-33.5778,19.02021,http://www.welbedacht.co.za/,
AF,South Africa,Groenberg,Wolvenhoek Vineyards,-33.60605,19.03076,https://www.facebook.com/wolvenhoekvineyards,
AF,South Africa,Groenberg,Arauna Farm,-33.61194,19.02951,https://www.facebook.com/ExperienceatArauna/,
AF,South Africa,Groenekloof,Ormonde Wines,-33.3808,18.37404,http://www.ormonde.co.za/,
AF,South Africa,Groenekloof,Darling Cellars (Pty) Ltd,-33.43827,18.52219,http://www.darlingcellars.co.za/,
AF,South Africa,Groenekloof,Alexander fontein,-33.36626,18.35833,,
AF,South Africa,Hemel-en-Aarde Ridge,Creation Wines,-34.33127,19.32679,https://www.creationwines.com/,3;2;330;7;9;68;1;27;14;4;131;0;28;51;34;110;31;61;5;25;8
AF,South Africa,Hemel-en-Aarde Ridge,Ataraxia Wines,-34.34096,19.30865,https://www.ataraxiawines.co.za/,3;0;5
AF,South Africa,Hemel-en-Aarde Ridge,Alheit Vineyards,-34.34325,19.30275,http://www.alheitvineyards.co.za/,
AF,South Africa,Hemel-en-Aarde Ridge,Creation Wines Entrance,-34.33158,19.33189,,
AF,South Africa,Hemel-en-Aarde Ridge,Jakob's Vineyards,-34.32839,19.32901,http://www.jakobsvineyards.co.za/,
AF,South Africa,Hemel-en-Aarde Valley,La Vierge Wines,-34.3729,19.24167,http://lavierge.co.za/,
AF,South Africa,Hemel-en-Aarde Valley,Bouchard Finlayson Winery,-34.38172,19.24187,http://www.bouchardfinlayson.co.za/,
AF,South Africa,Hemel-en-Aarde Valley,Hamilton Russell Vineyards,-34.38959,19.24191,http://www.hamiltonrussellvineyards.com/,
AF,South Africa,Hemel-en-Aarde Valley,Bartho Eksteen Wine Estate,-34.39925,19.21791,https://barthoeksteen.co.za/,3;21;5
AF,South Africa,Hemel-en-Aarde Valley,Southern Right,-34.40146,19.21672,http://www.southernright.co.za/,
AF,South Africa,Herbertsdale,Jakkalsvlei,-33.98368,21.71535,http://www.jakkalsvlei.co.za/,
AF,South Africa,Hex River Valley,Buffelskraal Vineyards,-33.43131,19.70326,,
AF,South Africa,Hex River Valley,Vendutiekraal,-33.50372,19.58568,,
AF,South Africa,Hoopsrivier,Wolfkloof Wines and Weddings Robertson,-33.79111,19.86664,http://www.wolfkloof.co.za/,
AF,South Africa,Hoopsrivier,Bodega de Vinho,-33.80428,19.88421,http://www.rooiberg.co.za/,
AF,South Africa,Hoopsrivier,Wolweberg Estate,-33.7879,19.86481,,
AF,South Africa,Hout Bay,Hout Bay Vineyards,-34.02444,18.37505,https://houtbayvineyards.co.za/index.html,617;7;1;21;0;5
AF,South Africa,Hout Bay,Ambeloui Wine Cellar,-34.01389,18.38218,http://www.ambeloui.co.za/,
AF,South Africa,Hout Bay,Vineyards on Victoria,-34.01763,18.35132,https://www.vineyardsonvictoria.co.za/,
AF,South Africa,Hout Bay,Nalu Wines,-34.03404,18.35846,https://naluwines.com/,1;67;21;0;28;66;32;5
AF,South Africa,Jonkershoek Valley,Stark-Condé Wines,-33.95378,18.91055,http://www.stark-conde.co.za/,
AF,South Africa,Jonkershoek Valley,Klein Gustrouw Estate,-33.93853,18.89911,,
AF,South Africa,Jonkershoek Valley,Jonkersdrift Olive & Wine Estate,-33.94519,18.89861,,
AF,South Africa,Jonkershoek Valley,Kara-Tara Wines,-33.95372,18.91061,https://karatarawines.co.za/,3;0
AF,South Africa,Kakamas,Die Mas van Kakamas,-28.76367,20.64159,http://diemas.co.za/,
AF,South Africa,Keimoes,Orange River Wines - Keimoes,-28.69736,20.96695,,
AF,South Africa,Keimoes,Bezalel Estate Cellars,-28.60836,21.10533,https://www.bezalel.co.za/,2;83;916;1;4;238;69;66;486;5
AF,South Africa,Keimoes,Keimoes Kelder,-28.69762,20.96697,,
AF,South Africa,Klaasvoogds,Rietvallei Wine Estate,-33.82676,19.97728,https://rietvallei.co.za/,617;6;2;149;1;14;21;0;28;50;10;5;42;8;815
AF,South Africa,Klaasvoogds,Kranskop Wines,-33.79849,19.99849,http://www.kranskopwines.co.za/,
AF,South Africa,Klaasvoogds,Burgershof,-33.82742,19.97703,,
AF,South Africa,Klaasvoogds,Owl's Rest - Olive and Lavender Farm,-33.7975,19.98405,http://www.owlsproducts.co.za/,
AF,South Africa,Klein Karoo,Grundheim Wines,-33.62739,22.06476,http://www.grundheim.co.za/,
AF,South Africa,Klein Karoo,Southern Cape Wine Yard,-33.50128,21.26773,,
AF,South Africa,Klein Karoo,Doornkraal,-33.50035,22.58393,https://www.doornkraal.co.za/,1;28;50;10;248
AF,South Africa,Klein Karoo,Kammanassie Blue Winery and Nature Reserve Office,-33.56828,22.5808,,
AF,South Africa,Klein Karoo,South Cape Vineyards,-33.59615,22.19614,,
AF,South Africa,Klein River,Raka Wine,-34.39825,19.62375,http://www.rakawine.co.za/,
AF,South Africa,Klein River,Boschrivier Wines,-34.38852,19.63155,http://www.boschrivierwines.co.za/,
AF,South Africa,Langeberg-Garcia,JP Bredell Wines,-33.92076,21.51372,,
AF,South Africa,Limietberg,Doolhof Wine Estate,-33.6232,19.08652,http://www.doolhof.com/,
AF,South Africa,Limietberg,Mila at Doolhof,-33.62593,19.08373,http://www.milarestaurant.co.za/,
AF,South Africa,Lions River,Abingdon Wine estate,-29.44311,30.1539,http://www.abingdonestate.co.za/,
AF,South Africa,Lions River,Highgate Wine Estate,-29.45941,30.13634,http://www.highgatewineestate.co.za/,
AF,South Africa,Lutzville Valley,Lutzville Vineyards,-31.56042,18.34999,http://www.lutzvillevineyards.com/,
AF,South Africa,Lutzville Valley,Seal Breeze Wines,-31.57528,18.33482,http://www.namaquawestcoast.com/seal-breeze/,
AF,South Africa,Lutzville Valley,Bellpost Wines,-31.60689,18.41686,,
AF,South Africa,Malgas,Sijnn Wines,-34.31678,20.61174,http://www.sijnn.co.za/,
AF,South Africa,Malmesbury,Swartland Winery,-33.45255,18.75482,https://www.swartlandwinery.co.za/,
AF,South Africa,Malmesbury,The Hughes Family Wines,-33.34068,18.7273,http://nativo.co.za/,
AF,South Africa,Malmesbury,Hillcrest Farm,-33.49098,18.6564,http://www.abbottshill.com/,
AF,South Africa,Malmesbury,Hillside Vineyards,-33.49273,18.65839,,
AF,South Africa,McGregor,Lord's Wines,-33.98796,19.74293,http://www.lordswinery.com/,
AF,South Africa,McGregor,McGregor Koop Wynmakery,-33.93469,19.8491,,
AF,South Africa,McGregor,Solara Organic Wines,-33.96031,19.81595,http://solarawines.co.za/,
AF,South Africa,McGregor,McGregor Winery,-33.93515,19.84922,https://mcgregorwinery.co.za/,3;2;1;67;21;0;28;66;50;10;5
AF,South Africa,Mid-Berg River,Cape Wine Cellars,-33.65459,18.99294,,
AF,South Africa,Mid-Berg River,Wellington Wines Production Facility,-33.63528,18.98904,http://www.wellingtonwines.com/,
AF,South Africa,Mid-Berg River,Wine Estate - Jacaranda Estate,-33.62226,19.00311,http://jacarandawines.co.za/,
AF,South Africa,Mid-Berg River,Vineyard Friends,-33.63088,18.98359,https://vineyardfriends.co.za/,2;9;1;67;0;28;5
AF,South Africa,Mid-Berg River,Versailles Wines Head Office,-33.63399,18.99341,https://versailleswines.co.za/,1;21;28;5
AF,South Africa,Mid-Berg River,Lazanou Organic Vineyards - By appointement only,-33.5983,18.9947,http://www.lazanou.co.za/,
AF,South Africa,Mid-Berg River,Douglas Green Winery,-33.63209,18.98603,http://www.dgb.co.za/,
AF,South Africa,Mid-Berg River,Belle Vallee Vineyards & Venue,-33.59579,18.97427,http://www.bellevallee.co.za/,
AF,South Africa,Montagu,Rietrivier Wine Cellar,-33.88215,20.29628,,
AF,South Africa,Montagu,Drie Berge Winery,-33.74657,20.10365,,
AF,South Africa,Montagu,Mimosa Wines,-33.79129,20.1113,http://www.mimosawines.co.za/,
AF,South Africa,Montagu,Montagu Winery,-33.77595,20.13262,,
AF,South Africa,Montagu,The Vineyard Country House,-33.7897,20.12001,http://www.thevineyardcountryhouse.co.za/,
AF,South Africa,Montagu,Klein Karoo Winery,-33.78558,20.12554,,
AF,South Africa,Napier,Vierfontein Boerdery,-34.49643,19.90981,,
AF,South Africa,Napier,Skipskop Wines,-34.47416,19.90203,http://www.skipskopwines.com/,
AF,South Africa,Napier,Maison De Thierry,-34.47299,19.9017,,
AF,South Africa,Nuy,Leipzig Country House & Winery,-33.64134,19.63542,http://www.leipzig.co.za/,
AF,South Africa,Nuy,Conradie Family Vineyards,-33.65805,19.63346,,
AF,South Africa,Nuy,Nuy Valley Guest Farm,-33.65737,19.63213,,
AF,South Africa,Nuy,Leipzig Winery,-33.63915,19.63189,,
AF,South Africa,Olifants River,Stellar Winery,-31.70764,18.55952,,
AF,South Africa,Olifants River,Klawer Wine Cellars (Pty) Ltd,-31.79382,18.62792,http://www.klawerwine.co.za/,
AF,South Africa,Outeniqua,Herold Wines,-33.86359,22.46889,http://www.heroldwines.co.za/,
AF,South Africa,Overberg,Seven Springs Vineyard,-34.32677,19.37727,http://7springs.co.za/,
AF,South Africa,Overberg,McFarlane Wines,-34.32687,19.37787,,
AF,South Africa,Paardeberg,The Sadie Family Wines,-33.52537,18.80478,http://www.thesadiefamily.com/,
AF,South Africa,Paardeberg,AA Badenhorst Family Wines,-33.54393,18.81856,http://aabadenhorst.com/,
AF,South Africa,Paardeberg,David & Nadia (Wine of origin Swartland),-33.54508,18.82704,http://www.davidnadia.com/,
AF,South Africa,Paardeberg,Lammershoek,-33.52532,18.80597,http://www.lammershoek.co.za/,
AF,South Africa,Paardeberg,Annex Kloof,-33.51102,18.80634,,
AF,South Africa,Paardeberg,Intellego Wines,-33.5108,18.80632,http://www.intellegowines.com/,
AF,South Africa,Paardeberg,Swerwerwines,-33.56191,18.82066,http://www.swerwerwines.com/,
AF,South Africa,Paardeberg,Wightman & Sons Winery,-33.5203,18.81395,http://www.wightmanandsons.co.za/,
AF,South Africa,Paarl,Fairview Wine and Cheese,-33.77175,18.92423,https://www.fairview.co.za/,6;2;20;35;7;1;18;14;67;12;21;41;15;28;37;31;5;89;8
AF,South Africa,Paarl,Nederburg Wines,-33.72064,19.00336,http://www.nederburg.com/,
AF,South Africa,Paarl,Vendôme Wynlandgoed,-33.75755,18.9786,http://www.vendome.co.za/%20%20%20%20%20%20%20%20salmonandbrine.co.za,
AF,South Africa,Paarl,Klein Parys Vineyards,-33.74857,18.97797,http://www.kleinparysvineyards.co.za/,
AF,South Africa,Paarl,Landskroon Wines,-33.76078,18.91633,http://www.landskroonwines.com/,
AF,South Africa,Paarl,Ridgeback Wines,-33.67335,18.91492,http://www.ridgebackwines.co.za/,
AF,South Africa,Paarl,Le Joubert Wine Estate,-33.72488,18.9549,http://www.lejoubert.com/,
AF,South Africa,Paarl,Laborie Wine Estate,-33.76604,18.95763,http://www.laborieestate.co.za/,
AF,South Africa,Paarl,Adama Wines,-33.7658,18.96354,http://adamawines.co.za/,
AF,South Africa,Paarl,Lourens Family Wines,-33.74245,18.96373,http://lourensfamilywines.co.za/,
AF,South Africa,Paarl,Van Loggerenberg Wines,-33.77698,18.95512,http://www.vanloggerenbergwines.co.za/,
AF,South Africa,Paarl,Frater Family Wines,-33.7741,18.96507,http://www.fraterfamilywines.co.za/,
AF,South Africa,Paarl,Windmeul Kelder,-33.67126,18.90887,http://www.windmeul.com/,
AF,South Africa,Paarl,Simonsvlei Wines,-33.78971,18.93,http://www.simonsvlei.com/,
AF,South Africa,Paarl,Southern Sky Wines,-33.73423,18.96211,http://ssw.co.za/,
AF,South Africa,Paarl,Under Oaks Estate,-33.67516,18.94219,http://www.underoaks.co.za/,
AF,South Africa,Paarl,Golden Kaan,-33.76304,18.96207,,
AF,South Africa,Paarl,Kwv South Africa (Pty) Ltd,-33.76198,18.9619,http://www.kwv.co.za/,
AF,South Africa,Paarl,Tempel Wines,-33.67697,18.97287,http://www.tempelwines.co.za/,
AF,South Africa,Paarl,Avondale Wine,-33.76465,19.00113,http://www.avondalewine.co.za/,
AF,South Africa,Paarl,Rhebokskloof Wine Estate,-33.6844,18.93303,http://www.rhebokskloof.co.za/,
AF,South Africa,Paarl,Mellasat Vineyards,-33.74157,19.04166,http://www.mellasat.com/,
AF,South Africa,Paarl,Joostenberg Wines,-33.81231,18.80882,http://www.joostenberg.co.za/,
AF,South Africa,Paarl,Bacco Estate Winery,-33.80147,18.92845,http://www.baccoestate.co.za/,
AF,South Africa,Paarl,Ruitersvlei Wine Estate,-33.74737,18.89197,https://www.ruitersvlei.co.za/,
AF,South Africa,Paarl,M'hudi Wines Stellenbosch,-33.84246,18.76417,https://mhudi.com/,2;67;21;28;625
AF,South Africa,Paarl,Nelson Wine Estate,-33.6586,18.93765,http://www.nelsonscreek.co.za/,
AF,South Africa,Paarl,Mellasat Cellar,-33.73322,18.99543,,
AF,South Africa,Paarl,The Ahrens Family Winery,-33.75301,19.0299,https://theahrensfamily.co.za/,
AF,South Africa,Paarl,Druk-My-Niet Wine Estate,-33.69028,19.02833,https://www.dmnwines.co.za/,6;2;9;1;67;21;41;15;28
AF,South Africa,Paarl,Painted Wolf Wines,-33.82681,18.95113,http://www.paintedwolfwines.com/,
AF,South Africa,Paarl,Brookdale Estate | Manor House,-33.71981,19.03621,http://www.brookdale-estate.com/,
AF,South Africa,Paarl,Boland Cellar,-33.68934,18.95494,https://bolandcellar.co.za/,
AF,South Africa,Paarl,Kusafiri Organic Wines,-33.77135,18.95712,https://kusafiriwines.co.za/,
AF,South Africa,Paarl,Calais Wine Estate,-33.7087,19.02141,,
AF,South Africa,Paarl,Olsen Private Vineyard,-33.73366,19.04724,http://olsenprivatevineyards.co.za/,
AF,South Africa,Paarl,Marcel de Reuck Wines,-33.68977,18.90104,,
AF,South Africa,Paarl,Mooi Bly cottages,-33.68738,19.02136,http://www.mooibly.com/,
AF,South Africa,Paarl,Groot Parys Estate (Pty) Ltd.,-33.74683,18.97738,http://www.grootparys.co.za/,
AF,South Africa,Paarl,Piccolo Vino,-33.72365,18.97906,,
AF,South Africa,Philadelphia,CAPAIA,-33.69868,18.56861,http://www.capaia.co.za/map.aspx?CLIENTID=4823&Title=Map%20and%20Directions,
AF,South Africa,Piekenierskloof,Tierhoek,-32.39132,18.857,http://www.tierhoek.com/,
AF,South Africa,Plettenberg Bay,Bitou Vineyards,-34.01918,23.38536,,
AF,South Africa,Plettenberg Bay,Plettenvale Wines,-34.08438,23.31893,http://www.plettenvalewines.co.za/,
AF,South Africa,Plettenberg Bay,Packwood Wine and Country Estate (Pty) Ltd,-34.0059,23.22854,http://www.packwood.co.za/,
AF,South Africa,Plettenberg Bay,Newstead Wine Estate,-33.94974,23.47124,http://www.newsteadwines.com/,
AF,South Africa,Plettenberg Bay,Kay & Monty Vineyards,-33.93098,23.43486,https://www.kayandmonty.com/welcome,3;7;18;21;255;0;5
AF,South Africa,Plettenberg Bay,Luka Vineyards,-34.04204,23.26616,http://lukavineyards.co.za/,
AF,South Africa,Polkadraai Hills,Saxenburg Wine Estate,-33.94669,18.71916,http://www.saxenburg.co.za/,
AF,South Africa,Polkadraai Hills,Zevenwacht Wine Estate,-33.93196,18.71684,http://zevenwacht.co.za/,
AF,South Africa,Polkadraai Hills,Catherine Marshall Wines,-33.96487,18.73361,http://cmwines.co.za/,
AF,South Africa,Polkadraai Hills,Raats Family Wines,-33.97079,18.74748,http://raats.co.za/,
AF,South Africa,Polkadraai Hills,De Toren Private Cellar,-33.96019,18.75216,https://www.de-toren.com/,118;3;6;2;9;1;14;4;19;169;61
AF,South Africa,Polkadraai Hills,Reyneke Wines,-33.95609,18.74359,https://www.reynekewines.co.za/,617;3;6;2;371;149;7;1;14;67;4;15;255;0;28;66;34;62;5;42;89
AF,South Africa,Polkadraai Hills,Karibib Wine Craft,-33.962,18.73227,http://www.karibib.co.za/,
AF,South Africa,Polkadraai Hills,Nico van der Merwe Wines,-33.96377,18.73179,https://www.nvdmwines.com/,3;6;2;7;1;4;0;28;5
AF,South Africa,Polkadraai Hills,Blydschap Wine Estate,-33.93956,18.72268,,
AF,South Africa,Prieska,Lowerland Wines,-29.49528,23.00611,http://lowerland.co.za/,
AF,South Africa,Prince Albert Valley,Bergwater Vineyards (Pty) Ltd,-33.26316,22.07564,https://www.bergwater.com/,
AF,South Africa,Riebeekberg,Marras Wines,-33.35382,18.87201,https://www.marraswines.co.za/,
AF,South Africa,Riebeekberg,Kloovenburg Wine & Olive Estate,-33.3941,18.89003,http://www.kloovenburg.com/,
AF,South Africa,Riebeekberg,Pulpit Rock Wine,-33.33811,18.84908,http://www.pulpitrock.co.za/,
AF,South Africa,Riebeekberg,Allesverloren,-33.35835,18.87412,http://www.allesverloren.co.za/,
AF,South Africa,Riebeekberg,Riebeek Valley Wine Co,-33.38297,18.91383,https://riebeekvalleywineco.com/,
AF,South Africa,Riebeekberg,THORNGROVE,-33.38569,18.9041,http://thorngrovewines.co.za/,
AF,South Africa,Riebeekberg,Vineyard Views Country House,-33.38121,18.9018,http://www.vineyardviews.co.za/,
AF,South Africa,Riebeekberg,Knolfontein Wines,-33.33338,18.87065,https://www.knolfonteinwines.co.za/,
AF,South Africa,Riebeekberg,Remhoogte,-33.38007,18.8856,,
AF,South Africa,Riebeekberg,The Blacksmith Wines,-33.34518,18.87057,https://theblacksmithwines.co.za/,3;20;564;7;67;683;0;28;647;277;10;135;5;13;42
AF,South Africa,Riebeekberg,VINEVENOM,-33.38359,18.89631,,
AF,South Africa,Riebeeksrivier,Mullineux Winery - Swartland,-33.37605,18.84043,http://www.mlfwines.com/,
AF,South Africa,Riebeeksrivier,Yellowwood Winery,-33.3651,18.83719,,
AF,South Africa,Riebeeksrivier,Roundstone Farm,-33.37409,18.83899,http://mlfwines.com/,
AF,South Africa,Rietrivier FS,Wilreza Winery,-29.13329,24.7974,,
AF,South Africa,Rietrivier FS,Wilreza Winery,-29.1609,24.72533,,
AF,South Africa,Simonsberg-Paarl,Glen Carlou,-33.81176,18.9033,https://glencarlou.com/,3;6;2;9;1;14;67;4;0;10;80;5;42
AF,South Africa,Simonsberg-Paarl,Marianne Wine Estate,-33.83271,18.89371,http://mariannewines.com/,
AF,South Africa,Simonsberg-Paarl,Babylonstoren Wine Estate,-33.82371,18.9267,http://www.babylonstoren.com/,
AF,South Africa,Simonsberg-Paarl,Plaisir Wine Estate,-33.84287,18.95896,http://www.plaisir.co.za/,
AF,South Africa,Simonsberg-Paarl,Mitre's Edge Wine Estate - Best Boutique Wine Farm Stellenbosch | Cheese & Wine Tasting Stellenbosch,-33.82982,18.87615,http://www.mitres-edge.co.za/,
AF,South Africa,Simonsberg-Paarl,Noble Hill,-33.82697,18.93672,https://www.noblehill.com/,6;2;7;1;18;14;4;0;28;34;37;5;8
AF,South Africa,Simonsberg-Paarl,Anura Vineyards,-33.80426,18.8864,http://www.anura.co.za/,
AF,South Africa,Simonsberg-Paarl,Vrede en Lust Wine Estate,-33.83742,18.95328,http://www.vnl.co.za/,
AF,South Africa,Simonsberg-Paarl,Rupert & Rothschild Vignerons,-33.83519,18.95151,http://www.rupert-rothschildvignerons.com/,
AF,South Africa,Simonsberg-Paarl,Niel Joubert Wines,-33.83171,18.90047,http://www.nieljoubert.co.za/,
AF,South Africa,Simonsberg-Stellenbosch,Arra Vineyards,-33.82378,18.86253,http://arravineyards.com/,
AF,South Africa,Simonsberg-Stellenbosch,Delaire Winery (Pty) Ltd,-33.92088,18.91925,https://www.delaire.co.za/,
AF,South Africa,Simonsberg-Stellenbosch,Thelema Mountain Vineyards,-33.90842,18.92248,https://www.thelema.co.za/,214;3;2;7;1;14;4;0;50;10;31;61;5;8
AF,South Africa,Simonsberg-Stellenbosch,Remhoogte Wine Estate,-33.88483,18.85123,https://remhoogte.co.za/,
AF,South Africa,Simonsberg-Stellenbosch,Delheim Wine Estate,-33.8699,18.88574,http://www.delheim.com/,
AF,South Africa,Simonsberg-Stellenbosch,Quoin Rock Wine Lounge,-33.87789,18.86641,http://www.quoinrock.co.za/,
AF,South Africa,Simonsberg-Stellenbosch,Kanonkop Wine Estate,-33.85485,18.86011,http://www.kanonkop.co.za/,
AF,South Africa,Simonsberg-Stellenbosch,Rustenberg Estate,-33.91158,18.88873,http://www.rustenberg.co.za/,
AF,South Africa,Simonsberg-Stellenbosch,Warwick Wine Estate,-33.84046,18.86401,https://www.warwickwine.com/,
AF,South Africa,Simonsberg-Stellenbosch,Muratie Wine Estate,-33.87047,18.87592,http://www.muratie.co.za/,
AF,South Africa,Simonsberg-Stellenbosch,Morgenhof Wine Estate,-33.89397,18.86077,http://www.morgenhof.com/,
AF,South Africa,Simonsberg-Stellenbosch,Lievland Vineyards,-33.84104,18.87631,https://lievland.co.za/,
AF,South Africa,Slanghoek,Breëland Winery & Restaurant,-33.65047,19.22763,https://maraiswines.co.za/,
AF,South Africa,Slanghoek,Marais Family Wines,-33.65048,19.22763,http://maraiswines.co.za/,
AF,South Africa,Spruitdrift,Namaqua Wines Spruitdrift Wynkelder,-31.71089,18.50379,http://www.namaquawines.com/,
AF,South Africa,Spruitdrift,Teubes Family Wines,-31.71602,18.5098,http://teubeswines.co.za/,
AF,South Africa,Spruitdrift,Cape Rock Wines,-31.71795,18.5237,http://www.caperockwines.co.za/,
AF,South Africa,Spruitdrift,Stoumann's Wine Cellar (By Appointment),-31.68939,18.50117,,
AF,South Africa,St Helena Bay,Berg En See,-32.75558,18.00746,,
AF,South Africa,St Helena Bay,Gedeelte Wines,-32.50875,18.38236,https://gedeeltewines.co.za/,135;5
AF,South Africa,St Helena Bay,De Plaat Kelders,-32.78687,18.18446,,
AF,South Africa,Stanford Foothills,Stanford Hills Estate,-34.42269,19.47386,https://www.stanfordhills.co.za/,
AF,South Africa,Stanford Foothills,Sir Robert Stanford Estate,-34.41942,19.46486,,
AF,South Africa,Stellenbosch,Vergelegen Wine Estate,-34.07729,18.89173,http://www.vergelegen.co.za/,
AF,South Africa,Stellenbosch,Avontuur Wine Estate,-34.02586,18.82328,http://www.avontuurestate.co.za/,
AF,South Africa,Stellenbosch,Waterkloof Wine Estate,-34.09886,18.88956,http://www.waterkloofwines.co.za/,
AF,South Africa,Stellenbosch,Jordan Wine Estate,-33.94296,18.74422,http://www.jordanwines.com/,
AF,South Africa,Stellenbosch,Lourensford Wine Estate,-34.07191,18.88862,http://www.lourensford.co.za/,
AF,South Africa,Stellenbosch,Uva Mira Mountain Vineyards,-34.02358,18.85809,http://www.uvamira.com/,
AF,South Africa,Stellenbosch,Rust en Vrede Wine Estate,-33.99838,18.85601,http://rustenvrede.com/,
AF,South Africa,Stellenbosch,Kyburg Boutique Wines,-33.94153,18.83075,https://kyburgwine.com/,2;1;21;28
AF,South Africa,Stellenbosch,Pink Valley Wines & Restaurant,-34.03113,18.82898,http://www.pinkvalleywines.com/,
AF,South Africa,Stellenbosch,Hidden Valley Wines,-34.02079,18.85378,http://www.hiddenvalleywines.co.za/,
AF,South Africa,Stellenbosch,De Waal Wines,-33.94157,18.76625,https://www.dewaal.co.za/,3;2;1;67;21;28;5
AF,South Africa,Stellenbosch,The Vineyard Connection,-33.94225,18.83053,http://www.vineyardconnection.co.za/,
AF,South Africa,Stellenbosch,Dornier Wine Estate,-33.99098,18.86812,http://www.dornier.co.za/,
AF,South Africa,Stellenbosch,Eikendal Vineyards,-34.01306,18.82363,http://www.eikendal.com/,
AF,South Africa,Stellenbosch,Waterford Estate,-33.99572,18.87041,http://www.waterfordestate.co.za/,
AF,South Africa,Stellenbosch,Ernie Els Wines,-34.01461,18.84814,http://www.ernieelswines.com/,
AF,South Africa,Stellenbosch,Beyerskloof Wines,-33.89156,18.82326,https://beyerskloof.co.za/,3;2;1;67;21;28
AF,South Africa,Stellenbosch,Koelenhof Winery,-33.83459,18.79787,https://www.koelenhof.co.za/,2;1;67;21;0;28;5
AF,South Africa,Stellenbosch,Kleine Zalze Wine Estate,-33.97052,18.83619,http://www.kleinezalze.co.za/,
AF,South Africa,Stellenbosch,Neil Ellis Wines Pty Ltd,-33.92522,18.89131,http://www.neilellis.com/,
AF,South Africa,Stellenbosch,Kings Kloof Vineyards,-34.05734,18.86648,http://www.kingskloof.co.za/,
AF,South Africa,Stellenbosch,Journeys End Vineyard,-34.10981,18.91529,http://www.journeysend.co.za/,
AF,South Africa,Stellenbosch,False Bay Vineyards,-34.11208,18.89012,http://falsebayvineyards.co.za/,
AF,South Africa,Stellenbosch,Morgenster Estate,-34.08394,18.88501,http://www.morgenster.co.za/,
AF,South Africa,Stellenbosch,Osbloed Wines,-34.09062,18.86552,,
AF,South Africa,Stellenbosch,Mount Rhodes Wine Estate,-34.11045,18.89188,https://www.mountrhodes.com/,
AF,South Africa,Stellenbosch,Highberry Vineyards & Venue,-34.10478,18.90846,http://www.highberry.co.za/,
AF,South Africa,Stellenbosch,Melkerskloof,-34.11318,18.89596,https://www.melkerskloof.co.za/?utm_source=google&utm_medium=wix_google_business_profile&utm_campaign=13028792881247447032,2;28
AF,South Africa,Stellenbosch,Late Bloomer Boutique Winery,-34.15162,18.88577,https://www.latebloomerwines.com/,3;2;1;4;28;5
AF,South Africa,Stellenbosch,Rudera Wines (Pty) Ltd,-34.07783,18.85048,http://www.rudera.co.za/,
AF,South Africa,Stellenbosch,Glenelly Estate,-33.92085,18.87868,http://glenellyestate.com/,
AF,South Africa,Stellenbosch,Kanu Wines,-33.88997,18.81788,http://www.kanu.co.za/,
AF,South Africa,Stellenbosch,Post House Wines,-34.01884,18.81118,http://www.posthousewines.co.za/,
AF,South Africa,Stellenbosch,Simonsig Family Vineyards,-33.87006,18.82542,http://www.simonsig.co.za/,
AF,South Africa,Stellenbosch,Mulderbosch Vineyards,-33.9485,18.76678,http://www.mulderbosch.co.za/,
AF,South Africa,Stellenbosch,Neethlingshof (1692),-33.94206,18.80171,http://www.neethlingshof.co.za/,
AF,South Africa,Stellenbosch,Stellenbosch Hills,-33.96042,18.80038,http://www.stellenbosch-hills.co.za/,
AF,South Africa,Stellenbosch,Lovane Boutique Wine Estate and Guest House,-33.95253,18.80061,http://www.lovane.co.za/,
AF,South Africa,Stellenbosch,Peter Falke Wines,-34.00083,18.83889,http://www.peterfalkewines.com/,
AF,South Africa,Stellenbosch,Wolwedans Vineyards (Pty) Ltd,-33.92435,18.79161,,
AF,South Africa,Stellenbosch,Vredenheim Wine Farm,-33.96062,18.80796,http://vredenheim.co.za/,
AF,South Africa,Stellenbosch,Vergenoegd Löw The Wine Estate,-34.02792,18.74198,https://vergenoegd.co.za/,2;39;9;1;21;0;28;43;5;90
AF,South Africa,Stellenbosch,Keermont Vineyards,-34.00725,18.89449,http://www.keermont.co.za/,
AF,South Africa,Stellenbosch,Alto Wine Estate,-34.00034,18.84365,http://www.alto.co.za/,
AF,South Africa,Stellenbosch,Stellenrust Wine estate,-33.98846,18.84942,http://www.stellenrust.co.za/,
AF,South Africa,Stellenbosch,Haskell Vineyards - Dombeya Wines,-34.00442,18.86028,https://www.haskellvineyards.com/,
AF,South Africa,Stellenbosch,Kleinood,-33.99535,18.87379,http://www.kleinood.com/,
AF,South Africa,Stellenbosch,Grangehurst Winery,-34.01613,18.83118,https://grangehurst.co.za/,
AF,South Africa,Stellenbosch,Meerlust Wine Estate,-34.01705,18.7572,http://www.meerlust.co.za/,
AF,South Africa,Stellenbosch,Yonder Hill Wines,-34.03917,18.82783,http://www.yonderhill.co.za/,
AF,South Africa,Stellenbosch,Stellenbosch Reserve,-34.00453,18.86028,http://www.thestellenboschreserve.com/,
AF,South Africa,Stellenbosch,De Meye Wine Estate,-33.81823,18.82731,http://www.demeye.co.za/,
AF,South Africa,Stellenbosch,Ken Forrester Wines,-34.02585,18.81838,https://kenforresterwines.com/,
AF,South Africa,Stellenbosch,Helderberg Winery,-34.02974,18.80486,,
AF,South Africa,Stellenbosch,Cirrus Wines,-34.00977,18.84133,http://cirruswines.com/,
AF,South Africa,Stellenbosch,Rustenhof Boerdery,-34.04512,18.78739,,
AF,South Africa,Stellenbosch,Blaauwklippen,-33.96924,18.84486,http://www.blaauwklippen.com/,
AF,South Africa,Stellenbosch,Villiera Wines,-33.83406,18.7954,http://www.villiera.com/,
AF,South Africa,Stellenbosch,Villiera Estate,-33.92234,18.85441,,
AF,South Africa,Stellenbosch,Origin,-33.87732,18.80798,https://origin.wine/,2;9;21;0
AF,South Africa,Stellenbosch,Aslina Wines,-33.87623,18.80458,https://www.aslinawines.com/,2;67;0;28;5
AF,South Africa,Stellenbosch,Wine Estate - Sterhuis,-33.87743,18.80762,,
AF,South Africa,Stellenbosch,Winshaw Vineyards,-34.00368,18.76109,,
AF,South Africa,Stellenbosch,L'Avenir Country Lodge,-33.886,18.84415,http://www.lavenirestate.co.za/,
AF,South Africa,Stellenbosch,Overgaauw Wine Estate,-33.94801,18.79315,https://www.overgaauw.co.za/,
AF,South Africa,Stellenbosch,The BLANKBOTTLE Winery,-34.03268,18.7877,https://blankbottle.co.za/,3;6;2;20;149;7;9;1;18;27;14;67;4;19;324;0;28;51;725;34;130;37;135;31;5;42;89;8
AF,South Africa,Stellenbosch,DeMorgenzon Stellenbosch,-33.93961,18.75113,http://www.demorgenzon.com/,
AF,South Africa,Stellenbosch,Wines of South Africa,-33.95698,18.85629,http://winesofsouthafrica.co.za/,
AF,South Africa,Stellenbosch,Annandale Wines,-33.99703,18.83082,http://www.annandale.co.za/,
AF,South Africa,Stellenbosch,The Winery of Good Hope,-34.01605,18.81747,http://www.thewineryofgoodhope.com/,
AF,South Africa,Stellenbosch,Super Single Vineyards,-33.94181,18.75325,http://www.supersinglevineyards.co.za/,
AF,South Africa,Stellenbosch,Vrede Wines,-33.84727,18.80373,https://www.vdcinternational.co.za/,
AF,South Africa,Stellenbosch,Flagstone Wines,-34.09116,18.80788,http://www.flagstonewines.com/,
AF,South Africa,Stellenbosch,Seven Sisters Vineyards,-33.99059,18.77563,http://www.sevensisters.co.za/,
AF,South Africa,Stellenbosch,Wine Estate - Audacia,-33.99582,18.83335,http://www.audacia.co.za/,
AF,South Africa,Stellenbosch,Longridge Wine Estate,-34.01568,18.83333,http://www.longridge.co.za/,
AF,South Africa,Stellenbosch,Guardian Peak Winery & Grill,-34.01076,18.84228,http://www.guardianpeak.com/,
AF,South Africa,Stellenbosch,Stellenzicht Wines,-33.99116,18.8681,http://stellenzicht.com/,
AF,South Africa,Stellenbosch,96 Winery Road Restaurant,-34.02732,18.80886,http://96wineryroad.co.za/,
AF,South Africa,Stettyn,Stettyn Family Vineyards,-33.87024,19.36644,https://www.stettyncellar.co.za/,
AF,South Africa,Sunday's Glen,Brunia Wines,-34.46892,19.6621,http://www.bruniawines.co.za/,
AF,South Africa,Swartland,Winkelshoek Bottelering,-32.91209,18.77057,http://www.winkelshoek.co.za/,
AF,South Africa,Swartland,Sierra Vista Wines,-33.00964,19.00471,https://sierravistawines.com/,35
AF,South Africa,Swartland,Moutons Valley Farm,-32.78217,18.71222,,
AF,South Africa,Swartland,Org de Rac Organic Wine Estate,-32.96667,18.75135,https://orgderac.com/,3;2;149;7;1;21;0;28;31;5;575;89;8
AF,South Africa,Swartland,Wildehurst Wines Koringberg,-33.02063,18.68018,,
AF,South Africa,Swartland,Platteklip vineyards,-32.80936,18.65253,https://www.platteklipvineyards.com/,
AF,South Africa,Swartland,Delsma Farm,-33.39697,18.97856,http://www.delsmafarm.co.za/,
AF,South Africa,Swellendam,Wildebraam Berry Estate,-34.01853,20.42047,http://www.wildebraam.co.za/,
AF,South Africa,Swellendam,Fazenda Farm,-33.99472,20.42008,,
AF,South Africa,Swellendam,Fonteinskloof,-33.99327,20.35012,http://fonteinskloof.com/,
AF,South Africa,Theewater,Villiersdorp,-33.98937,19.28921,http://villiersdorpwinery.co.za/,
AF,South Africa,Tradouw,Joubert Tradauw Wine Farm & Deli Alfresco,-33.92428,20.59619,http://www.joubert-tradauw.com/,
AF,South Africa,Tulbagh,Rijks Wine Estate and Hotel. Tulbagh.,-33.26769,19.14508,http://www.rijks.co.za/,
AF,South Africa,Tulbagh,Waverley Hill Organic Wines & Olive Estate,-33.40566,19.2396,https://www.waverleyhills.co.za/,
AF,South Africa,Tulbagh,Oude Compagnies Post (Swanepoel),-33.24816,19.09111,https://www.oudecompagnies.com/,2;7;18;67;21;142
AF,South Africa,Tulbagh,Oudekloof Wine Estate,-33.26835,19.07479,https://www.facebook.com/oudekloofwinery,
AF,South Africa,Tulbagh,Saronsberg Wine Cellar,-33.24626,19.11693,http://saronsberg.com/,
AF,South Africa,Tulbagh,Montpellier Wine Estate,-33.27561,19.11156,http://www.montpellier.co.za/,
AF,South Africa,Tulbagh,TULBAGH WINE ROUTE,-33.28722,19.14341,http://tulbaghwineroute.com/,
AF,South Africa,Tulbagh,Twee Jonge Gezellen,-33.23871,19.1132,http://www.kronecapclassique.co.za/,
AF,South Africa,Tulbagh,Theuniskraal Wines,-33.22823,19.13483,http://www.theuniskraal.co.za/,
AF,South Africa,Tulbagh,Schalkenbosch Wine Estate & Accommodation - Tulbagh,-33.31395,19.19894,https://schalkenbosch.co.za/,6;2;7;9;1;14;21;0;5;8
AF,South Africa,Tulbagh,Manley Wine Estate (Pty) Ltd.,-33.27102,19.14538,http://www.manleywineestate.co.za/,
AF,South Africa,Tulbagh,Tulbagh Wine Cellar,-33.25268,19.14411,http://www.tulbaghwine.co.za/,
AF,South Africa,Tulbagh,Lemberg Estate,-33.30233,19.10651,http://www.lemberg.co.za/,
AF,South Africa,Tulbagh,Saronsberg Vineyard Cottages,-33.24629,19.11699,,
AF,South Africa,Tulbagh,Digger's Home,-33.25322,19.09992,,
AF,South Africa,Tulbagh,Blue Crane Vineyards (Pty) Ltd,-33.24294,19.16375,https://bluecrane.co.za/,
AF,South Africa,Tulbagh,Oude Compagnies Post,-33.249,19.08868,https://www.oudecompagnies.com/,2;7;18;67;21;142
AF,South Africa,Tulbagh,Distell Drostdy Hof Winery Tulbagh,-33.28625,19.13852,,
AF,South Africa,Tulbagh,The Drostdy Country Venue & Wine Cellar,-33.2523,19.14427,,
AF,South Africa,Tulbagh,Panorama Farm,-33.19505,19.14397,,
AF,South Africa,Tulbagh,Tulbach Mountain Vineyards DKWK,-33.35186,19.21369,https://www.dekleinewijnkoop.co.za/,3;6;2;378;7;18;67;4;28;34;130;10;42;89
AF,South Africa,Upington,Orange River Wine Cellars.,-28.44207,21.20908,http://www.orangeriverwines.com/,
AF,South Africa,Upper Hemel-en-Aarde Valley,Bosman Hermanus | Frame House,-34.36757,19.23011,https://bosmanhermanus.com/,3;2;1;21;0;28;251;5
AF,South Africa,Upper Hemel-en-Aarde Valley,Spookfontein Wines & Tastings,-34.35521,19.28907,https://www.spookfontein.co.za/,
AF,South Africa,Upper Hemel-en-Aarde Valley,Newton Johnson Family Vineyards,-34.36984,19.25863,http://www.newtonjohnson.com/,
AF,South Africa,Upper Hemel-en-Aarde Valley,Storm Wines,-34.3546,19.28317,http://stormwines.co.za/,
AF,South Africa,Upper Hemel-en-Aarde Valley,Restless River Wines,-34.35738,19.2759,http://www.restlessriver.com/,
AF,South Africa,Upper Hemel-en-Aarde Valley,Hemel en Aarde Farm,-34.36065,19.26554,https://www.heafarm.co.za/,
AF,South Africa,Upper Hemel-en-Aarde Valley,Hemel 'n Aarde Stud,-34.35071,19.25932,http://www.hnastud.co.za/,
AF,South Africa,Upper Hemel-en-Aarde Valley,"G-Wizz Farm, Hermanus",-34.36502,19.23006,,
AF,South Africa,Upper Hemel-en-Aarde Valley,Moya’s Vineyard,-34.36525,19.26272,https://www.moyasvineyard.com/,
AF,South Africa,Upper Hemel-en-Aarde Valley,Cap Maritime,-34.37088,19.25341,http://www.capmaritime.co.za/,
AF,South Africa,Vinkrivier,Rooiberg Winery (Bistro hours differ),-33.7771,19.7625,http://www.rooiberg.co.za/,
AF,South Africa,Vinkrivier,Le Roux & Fourie Vignerons,-33.76117,19.73964,http://www.leroux-fourie.com/,
AF,South Africa,Vlottenburg,Boschkloof Wines,-33.96051,18.77018,https://www.boschkloofwines.com/,2;7;1;67;4;0;28;744;5
AF,South Africa,Vlottenburg,Skilpadvlei Wine Estate,-33.95961,18.76784,http://www.skilpadvlei.co.za/,
AF,South Africa,Vlottenburg,Stellenbosch Vineyards,-33.99036,18.76748,http://www.stellenboschvineyards.co.za/,
AF,South Africa,Vlottenburg,Spier Wine Farm,-33.97063,18.7857,https://www.spier.co.za/?gclid=Cj0KCQjwo-aCBhC-ARIsAAkNQiuSth9rj_mzilDkrlmkhHRZnSf8x9xfRprf2YQg1kkzg00YZMoHFXMaAhziEALw_wcB,3;133;2;1;67;21;0;28;394;5
AF,South Africa,Vlottenburg,Erika Obermeyer Wines,-33.99326,18.76711,https://erikaobermeyerwines.co.za/,
AF,South Africa,Voor-Paardeberg,Ayama Wines,-33.62442,18.82359,http://www.ayama.info/,
AF,South Africa,Voor-Paardeberg,Doran Vineyards,-33.58244,18.86637,http://www.doranvineyards.co.za/,
AF,South Africa,Voor-Paardeberg,SCALI Wines,-33.61105,18.85202,http://scaliwines.wordpress.com/,
AF,South Africa,Voor-Paardeberg,Germanier wines,-33.61606,18.84645,http://www.organicwinebysg.com/,
AF,South Africa,Voor-Paardeberg,Denneboom Vineyards,-33.62876,18.86514,http://www.denneboomvineyardsandwildlife.co.za/,
AF,South Africa,Vredendal,Namaqua Wines,-31.65324,18.5176,http://www.namaquawines.com/,
AF,South Africa,Walker Bay,Waterleliefontein,-34.1788,19.22507,http://waterleliefontein.co.za/,
AF,South Africa,Walker Bay,Whalehaven Winery,-34.41046,19.20023,http://www.whalehaven.co.za/,
AF,South Africa,Walker Bay,Hermanuspietersfontein Wines,-34.41122,19.19756,http://www.hpf1855.co.za/,
AF,South Africa,Walker Bay,Deep Rooted Wines,-34.4258,19.47401,http://www.deeprooted.wine/,
AF,South Africa,Worcester,Alvi’s Drift - No farm visits until further notice,-33.77319,19.53242,https://www.alvisdrift.co.za/,3;2;1;67;21;0;28;10;419;5;8
AF,South Africa,Worcester,Eagle’s Cliff Wines,-33.84037,19.41895,https://www.eaglescliff.co.za/,3;2;67;4;41;0;28;22;5;89
AF,South Africa,Worcester,Brandvlei Cellar | BC Wines,-33.80412,19.47015,http://www.bcwines.co.za/,
AF,South Africa,Worcester,Cilmor Wines,-33.73975,19.48499,https://cilmorwines.com/,9;67;21;0;28;5;8
AF,South Africa,Worcester,Aan De Doorns Cellar,-33.69737,19.49071,http://www.aandedoorns.co.za/,
AF,South Africa,Worcester,Overhex Winery,-33.65866,19.51552,https://www.overhex.com/,6;2;7;1;67;4;0;28;5
AF,South Africa,Worcester,Nuy Winery,-33.68594,19.58762,http://www.nuywinery.co.za/,
AF,South Africa,Worcester,Grand View,-33.50797,19.59977,http://www.asvfarms.co.za/,
AF,South Africa,Worcester,Vredehoek Vineyards,-33.645,19.44361,,
AF,South Africa,Worcester,Vineyard House,-33.91008,19.46213,,
AF,South Africa,Worcester,Lateganskop,-33.6587,19.45196,,
AF,South Africa,Worcester,"Van Eck, Family & Friends Winery",-33.64648,19.43481,https://www.facebook.com/Van-Eck-Family-Friends-Winery-702176903259942,
AF,South Africa,Zandrivier,Robertson Wine Valley,-33.80868,19.87899,http://www.robertsonwinevalley.com/,
AF,South Africa,Zandrivier,Robertson Winery Factory,-33.8087,19.87631,https://robertsonwinery.co.za/,3;2;1;427;67;269;21;0;28;66;50;10;80;5;13
AF,South Africa,Zandrivier,KWV,-33.80612,19.87405,https://www.kwv.co.za/,
AF,TN,Hammam-Lif,Smvda Domaine Neferis,36.6077,10.41816,http://www.neferis.com/,
AF,TN,Korba,Kurubis,36.57524,10.8124,http://www.kurubis.com/,
AF,ZA,Brits,Siwela Wines,-25.72403,27.87288,http://www.siwelawines.co.za/,
AF,ZA,Burgersfort,st4u Wines,-24.68137,30.3349,,
AF,ZA,Clanwilliam,Cederberg Wines,-32.50366,19.25749,http://cederbergwine.com/,
AF,ZA,Groblersdal,KDB Farm Office,-25.09896,29.40168,https://www.kdbfruitfarm.com/,10
AF,ZA,Johannesburg,Gerakaris Family Wines,-26.12826,28.01718,http://www.gerakaris.co.za/,
AF,ZA,Johannesburg,AM Vineyards,-26.14582,28.04379,https://www.amvineyards.com/,617;3;6;2;149;1;14;67;21;41;0;28;84;5
AF,ZA,Middelburg,The Vineyards Lifestyle,-25.74881,29.45011,,
AF,ZA,Polokwane,Merci Wines,-23.80919,29.33,,
AF,ZA,Polokwane,The PRW,-23.90859,29.45417,,
AF,ZA,Port Elizabeth,Theescombe Estate Wine Farm,-33.97876,25.47379,,
AF,ZA,Prince Albert,"Fernskloof Wines, Prince Albert",-33.22974,22.03169,http://www.fernskloof.co.za/,
AF,ZA,Prince Albert,Gay’s Guernsey Dairy,-33.23285,22.03277,http://www.gaysguernseydairy.com/,
AF,ZA,Prince Albert,Olive brook,-33.22779,21.85686,,
AF,ZA,Sasolburg,"Pont de Val Winery - The Garden Restaurant, Wine and Picnics!",-26.76979,27.6808,https://www.pontdeval.com/picnics/,
AF,ZA,Whittlesea,Mayime Winery,-32.17637,26.78928,http://mayimewinery.co.za/,
AF,ZA,Whittlesea,Harrison Hope Wine Estate,-32.17656,26.83522,,
AS,AM,Argavand,WineArt winery,40.20093,44.44993,,
AS,AM,Balahovit,Manukyan Brandy Factory,40.27276,44.601,,
AS,AM,K'anak'erravan,Yerevan Champagne Wine Factory,40.2264,44.53698,http://www.armchampagne.am/,
AS,AM,K'anak'erravan,365 Wines,40.22219,44.56355,http://www.gevorkianwinery.com/,
AS,AM,Prroshyan,Proshyan Brandy Factory,40.22696,44.44633,http://www.proshyan.am/,
AS,AM,Ptghni,Բագրևանդի գինու գործարան,40.20611,44.58824,,
AS,AM,Yerevan,Noy Factory,40.17342,44.50243,http://www.noy1877.am/,
AS,AM,Yerevan,Keghar,40.19133,44.53739,https://norqimarani.am/,118;603
AS,AM,Yerevan,Armenian local Winery,40.16767,44.51445,,
AS,AZ,Geoktschai,Chabiant Winery,40.70552,47.90069,https://www.chabiant.az/,
AS,AZ,Geoktschai,SAVALAN Şərab Zavodu,40.80572,47.65515,http://savalan.az/,
AS,Armenia,Aragatsotn,Voskevaz Winery,40.26999,44.29363,http://voskevaz.am/,
AS,Armenia,Aragatsotn,Armenia Wine Company,40.24433,44.33834,http://armeniawine.am/,
AS,Armenia,Aragatsotn,Van Ardi Winery,40.23018,44.34257,http://vanardi.com/,
AS,Armenia,Aragatsotn,Armas Estate,40.22937,44.11393,http://www.armas.am/,
AS,Armenia,Aragatsotn,Alexandrea Winery,40.2734,44.43224,,
AS,Armenia,Aragatsotn,STORK NEST,40.25155,44.35541,,
AS,Armenia,Aragatsotn,gastro yard,40.35179,44.26032,,
AS,Armenia,Aragatsotn,Hayasy Group,40.28892,44.28968,,
AS,Armenia,Aragatsotn,Kouash winery,40.29142,44.15697,http://kouash.am/,
AS,Armenia,Ararat,NOA Winery,40.11948,44.36769,,
AS,Armenia,Ararat,Proshyan Brandy Factory,39.99444,44.54894,http://www.proshyan.am,
AS,Armenia,Ararat,Aygezard Wine&Brandy Factory,39.9621,44.60281,,
AS,Armenia,Ararat,Givany Winery,39.89745,44.61019,https://instagram.com/givanywines,
AS,Armenia,Ararat,Azaria Winery,39.85199,44.69509,,
AS,Armenia,Ararat,Avshar Wine Factory,39.86308,44.66991,http://www.avshar-wine.am/,
AS,Armenia,Ararat,"""SISAVAN"" WINE FACTORY",39.90974,44.66474,,
AS,Armenia,Ararat,Van 777,39.92084,44.58827,,
AS,Armenia,Ararat,Араратский винный завод,39.82984,44.69847,,
AS,Armenia,Ararat,Rikars Wine,39.76624,44.80875,http://rikars.fattoriabellosguardo.com/,
AS,Armenia,Ararat,Tavinko,39.92255,44.58457,http://www.tavinko.am/,
AS,Armenia,Armavir,Karas Wines,40.17235,43.87085,http://www.karaswines.com/,
AS,Armenia,Armavir,Aratashen Winery,40.13505,44.22722,http://aratashenwinery.am/,
AS,Armenia,Armavir,VOSKENI wines,40.09898,43.92988,http://www.voskeniwines.com/,
AS,Armenia,Armavir,Yerevan Brandy Company,40.14476,44.04202,http://www.araratbrandy.com/,
AS,Armenia,Armavir,ArmAs Winery,40.26251,44.15182,http://armas.am/,
AS,Armenia,Armavir,Brest Wine Factory,40.14715,44.02632,,
AS,Armenia,Armavir,Alluria,40.15686,44.32692,http://www.alluria.wine/,
AS,Armenia,Armavir,Proshyan Brandy Factory,40.0797,44.05027,https://proshyan.am/,
AS,Armenia,Armavir,Aparteny LLC «ԱՓԱՐԹԵՆԻ» ՍՊԸ,40.1108,44.01852,http://apartenywine.com/,
AS,Armenia,Armavir,Ջրաղացպանյան,40.10063,44.01575,https://jraghatspanyan.am/,
AS,Armenia,Armavir,Maran,40.15947,44.38631,http://www.maran.am/,
AS,Armenia,Armavir,Bambakashat winery,40.09747,44.01741,http://bambakashat.com/,
AS,Armenia,Armavir,Machanents wines,40.16198,44.2968,,
AS,Armenia,Armavir,Monte Noah,40.13871,43.71878,http://www.montenoah.com/,
AS,Armenia,Armavir,Yerevan Ararat Brandy-Wine-Vodka Factory,40.08239,43.977,,
AS,Armenia,Armavir,Arpenik Wine and Brandy Factory,40.17084,44.22142,,
AS,Armenia,Armavir,Echmiadzin Wine Factory,40.16534,44.31018,,
AS,Armenia,Tavush,Ijevan Wine Factory,40.86343,45.13183,https://www.ijevangroup.am/,
AS,Armenia,Tavush,ACOL Armenian Ethnic Manor,40.74055,44.8626,https://www.instagram.com/winery.am/,
AS,Armenia,Tavush,бердаванский винный завод,41.19946,44.99752,,
AS,Armenia,Tavush,Yerevan Brandy Factory,40.87848,45.40356,,
AS,Armenia,Tavush,Koghba Wines,41.19547,44.99003,https://www.koghbawines.com/,
AS,Armenia,Tavush,Green village LLC,41.19533,44.99042,http://koghbawines.com/,
AS,Armenia,Tavush,Old Dilijan Winery Restaurant,40.73909,44.86906,http://www.olddilijan.com/,
AS,Armenia,Vayots Dzor,Old Bridge Winery,39.75136,45.32142,http://oldbridgewinery.com/,
AS,Armenia,Vayots Dzor,Momik WineCube,39.71857,45.16274,https://www.facebook.com/MomikWines/,118
AS,Armenia,Vayots Dzor,Areni Wine Factory,39.72839,45.18676,https://vayotsdzorwineroute.com/winery/areni-winy-factory/,118;2;39;1;4;0;603
AS,Armenia,Vayots Dzor,Trinity Canyon Vineyards,39.73572,45.24159,http://www.trinitycv.com/,
AS,Armenia,Vayots Dzor,Hin Areni Winery,39.72839,45.1869,http://hinareniwine.am/,
AS,Armenia,Vayots Dzor,Zorah Winery,39.76795,45.17442,http://www.zorahwines.com/,
AS,Armenia,Vayots Dzor,KRYA WINES,39.79039,45.36293,http://www.kryawines.com/,
AS,Armenia,Vayots Dzor,Matevosyan Wine,39.77226,45.23198,http://matevosyanwine.am/,
AS,Armenia,Vayots Dzor,Parseghyan Vineyards,39.77752,45.21977,http://parseghyanvineyards.com/,
AS,Armenia,Vayots Dzor,Areni Wine Winery,39.72162,45.18421,https://www.facebook.com/pg/AreniWineWinery/,118
AS,Armenia,Vayots Dzor,Vayk Winery and Vineyards,39.70401,45.44293,http://www.vaykwinery.com/,
AS,Armenia,Vayots Dzor,AreWine,39.72014,45.18276,http://www.arewine.am/,
AS,Armenia,Vayots Dzor,Stepanyans' Gastro Yard,39.72609,45.18533,https://stepanyansgastroyard.com/,118
AS,Armenia,Vayots Dzor,Keush,39.6222,45.20712,http://www.keush.com/,
AS,Armenia,Vayots Dzor,DZON Merjanian Vineyards,39.77772,45.22035,https://www.facebook.com/DzonWine,
AS,Armenia,Vayots Dzor,Maran Vineyards,39.75634,45.24073,http://www.maran.am/,
AS,Armenia,Vayots Dzor,Kamari Winery,39.76517,45.17801,,
AS,Armenia,Vayots Dzor,KOOR Wines,39.75635,45.24087,http://www.koor.am/,
AS,Armenia,Vayots Dzor,Vedi Alco - Getap Wine Factory,39.76603,45.31185,http://vedi-alco.am/,
AS,Armenia,Vayots Dzor,Wine House Haykazi mot,39.72811,45.18759,,
AS,Armenia,Vayots Dzor,Rind Winery,39.75998,45.17029,,
AS,Armenia,Vayots Dzor,DOVE CANYON WINEtasting,39.77424,45.22826,https://www.facebook.com/doveCanyonwine?mibextid=ZbWKwL,118
AS,Armenia,Vayots Dzor,Oshin Wines,39.74631,45.30608,https://www.oshinwines.com/,118;603
AS,Armenia,Vayots Dzor,SAVAR Winery,39.76653,45.17616,https://www.savarwinery.com/,
AS,Armenia,Vayots Dzor,Khachen Wines ԽԱՉԵՆ,39.76812,45.24019,http://www.khachenwines.com/,
AS,Armenia,Vayots Dzor,Frunze Estate Winery,39.77565,45.22378,https://frunzeestatewinery.com/,
AS,Azerbaijan,Caspian Shoreline,Marandi Wine Company,40.48415,49.79888,,
AS,Azerbaijan,Caspian Shoreline,Caspian Coast Winery&Vineyards,41.13349,49.07945,,
AS,Azerbaijan,Caspian Shoreline,SAVALAN Wine,40.39672,49.83713,http://savalan.az/,
AS,Azerbaijan,Caspian Shoreline,DEVs Sharab Şərab evi,40.55344,49.83273,https://devssharab.az/,888;1;215
AS,Azerbaijan,Caspian Shoreline,ЗАО Кристалл Плюс,40.42313,49.86307,,
AS,Azerbaijan,Caspian Shoreline,Tovuz Gold şərab,40.371,49.83952,,
AS,Azerbaijan,Caspian Shoreline,Şərab Evi,40.39115,49.95895,,
AS,Azerbaijan,Ganja and Lesser Caucasus,Ganja winery,40.71467,46.35974,,
AS,Azerbaijan,Ganja and Lesser Caucasus,Sharg Ulduzu winery,40.83684,46.05535,http://shargulduzu.com/,
AS,Azerbaijan,Ganja and Lesser Caucasus,Traubenfeld Winery,40.99494,45.62309,http://traubenfeld.com/,
AS,Azerbaijan,Ganja and Lesser Caucasus,Göygöl Şərab Zavodu - Xan 1860 (Goygol Wine Plant),40.59514,46.32204,https://www.xan.az/,3;385;2;83;7;170;888;1;4;215;0;10;11;5;95
AS,Azerbaijan,Shirvan Valley and Greater Caucasus,Shirvan Wines Llc,40.64512,48.58617,,
AS,BT,Trongsa,AWP maturation Centre,27.42246,90.21239,,
AS,BT,Tsirang,Pinsa Vineyard,27.23933,90.06046,http://www.bhutanwine.com/,
AS,Bhutan,West Bhutan,BHUMI WINERY,27.42947,89.41172,,
AS,CN,Beidajie,"China Moutai Winery Co.,Ltd.",31.58931,120.2952,,
AS,CN,Bozhou,China Anhui Bozhou Winery,33.99151,115.69396,,
AS,CN,Bozhou,China Anhui Jiupuxiang Winery,33.9897,115.68996,,
AS,CN,Fuji,Luyangqu Winery,29.0027,105.22168,,
AS,CN,Gongyi,唐僧寺酒堡,34.5942,112.81369,,
AS,CN,Guiren,Yanghe Winery,33.77772,118.37176,https://www.chinayanghe.com/,
AS,CN,Gusong,Yangzhaomingchun Winery,28.44938,105.3523,,
AS,CN,Luoyang,Qilian Winery,34.60275,112.45142,,
AS,CN,Luzhou,Sichuan Lurongqu Winery,28.9386,105.24698,,
AS,CN,Naxi,Luzhou Yonglong Winery,28.74452,105.31844,,
AS,CN,Naxi,Longhui Winery,28.73034,105.2293,,
AS,CN,Shuangfengqiao,China Jiudu Maotaizhen Mansion Winery,29.72547,106.62787,,
AS,CN,Yibin,Wuliangye Winery,28.79387,104.59644,,
AS,CN,Yibin,Yibin Cuiping Tianle Winery,28.80133,104.79837,,
AS,CN,Yibin,Yibin Zijun Denggongye Winery,28.79069,104.56218,,
AS,CN,Yibin,Jiu Qi Tai Hui Yuan Winery,28.79025,104.60618,,
AS,CN,Yibin,Dehong Winery,28.78571,104.60803,,
AS,CN,Yibin,Gaoxian Fujiang Winery,28.79236,104.60066,,
AS,CN,Yibin,Lu Yi Ka Dan Winery Yibin Operation Center,28.76182,104.61333,,
AS,CN,Yibin,Nanfusan Winery,28.75385,104.626,,
AS,CN,Yibin,Nanfusan Winery,28.78851,104.60769,,
AS,CN,Yibin,Nanxi Innateness Winery,28.76189,104.62457,,
AS,CY,Lapithos,Elfie's Winery,35.3039,33.10894,https://www.facebook.com/profile.php?id=100086521159015,
AS,CY,Lapithos,Etel Winery,35.32405,33.22111,https://gillhamvineyard.com/wine-and-vineyard/,
AS,China,Beijing,Beijing Dragon Seal Winery Museum,39.92635,116.25371,http://www.dragonseal.com/,
AS,China,Beijing,Beijing Grape Winery,39.92873,116.25199,http://www.dragonseal.com/,
AS,China,Beijing,Yuyuan Grape Winery,39.99183,116.21568,,
AS,China,Beijing,悠航鲜啤Slow Boat Brewery （麦子店）,39.94515,116.4727,http://www.slowboatbrewery.com/,
AS,China,Beijing,Beijing Chaoyang Winery,40.00783,116.45017,,
AS,China,Beijing,Beijing Baochang Winery,39.9491,116.0928,,
AS,China,Beijing,Beijing Yangshi Winery,40.03151,116.44532,,
AS,China,Hebei,Shacheng Winery,40.77602,114.88903,,
AS,China,Hebei,"Guizhou Moutai Winery （Group） Xi Alcohol Co., Ltd.",40.76626,114.89577,,
AS,China,Hebei,Hebei Yuxian Winery Zhuzhang Marketing Chu,40.80821,114.87559,,
AS,China,Hebei,Great Wall Sanggan Winery,40.40536,115.51264,,
AS,China,Hebei,CPC Langfang Winery Committee,39.51503,116.65734,,
AS,China,Jilin,Yajianggu Winery,41.51615,126.54546,,
AS,China,Jilin,Tonghua Natural Grape Winery,41.62268,125.69942,,
AS,China,Jilin,Tonghua Linhai Shanputao Winery,41.98623,125.68599,,
AS,China,Jilin,Tonghua Mengsite Grape Winery,42.28649,125.74963,,
AS,China,Jilin,Tonghua Haowang Grape Winery,42.05376,125.75742,,
AS,China,Ningxia Hui,Chateau Changyu–Moser XV,38.48719,106.23091,http://www.changyu-moser-xv.de/contact/,
AS,China,Ningxia Hui,Bo Na Bai Fu Winery,38.48535,106.04384,,
AS,China,Ningxia Hui,Wine Industry Demonstration,38.48964,106.02842,,
AS,China,Ningxia Hui,"Ningxia Huida Sunshine Ecology Winery Co.,Ltd.",38.47012,106.27248,,
AS,China,Ningxia Hui,Shuran Winery,38.45893,106.26131,,
AS,China,Shandong,Chateau Junding,37.74741,120.83673,http://www.nava.cn/,
AS,China,Shandong,Shandong Province Kenli Huanghejia Winery,37.54104,118.72666,,
AS,China,Shandong,Chateau Huadong-Parry,36.16526,120.52201,,
AS,China,Shandong,Yantai Dachuan Winery,37.47476,121.33857,,
AS,China,Shandong,Shandong Yantai Zirun Winery,37.37509,121.60827,,
AS,China,Shandong,Yantai Yangma Island Haci Guibin Winery,37.47101,121.62835,,
AS,China,Shandong,Dade Winery,37.52044,121.43097,,
AS,China,Shandong,Haiyang Qiguanyan Health Care Winery,36.7648,121.18467,,
AS,China,Shandong,Nuowangbao Winery,37.41452,121.48523,,
AS,China,Shandong,Yingzhou Winery,37.80271,120.80736,,
AS,China,Shandong,Zeyyi Winery,37.7181,121.00228,,
AS,China,Shandong,"Yantai Kateer Winery Wine Co.,Ltd.",37.68661,120.98734,,
AS,China,Shandong,Runaway Cow Winery Retreat,37.61322,120.90469,,
AS,China,Shandong,Geluoni Winery,37.79782,120.72728,,
AS,China,Shandong,"Yantai Kaisite Vineyard Grape Winery Co.,Ltd.",37.7856,120.81183,,
AS,China,Shandong,Wozu Winery,37.7766,120.85906,,
AS,China,Shandong,Yantai Mingyang Wine Business Nanwang Yangcheng Winery,37.76819,120.81349,,
AS,China,Shandong,Ruby Winery,37.81228,120.75168,,
AS,China,Shandong,Lao Winery Salesroom,37.80356,120.7827,,
AS,China,Shanxi,Grace Vineyard,37.52185,112.78139,http://en.grace-vineyard.com/,
AS,China,Xinjiang Uygur,Turpan Gaochang District Volcano Red Wine Winery,43.00147,89.13922,,
AS,China,Xinjiang Uygur,Linghaiba Winery,42.80844,88.66813,,
AS,China,Xinjiang Uygur,Loulan Winery,42.94294,89.18303,,
AS,China,Xinjiang Uygur,Cheshi Winery,43.06925,90.49008,,
AS,China,Xinjiang Uygur,Loulan Wine China Winery Jiu,42.86764,90.21242,,
AS,China,Xinjiang Uygur,Tiange'Er Winery,43.82979,87.59757,,
AS,China,Xinjiang Uygur,Haitelan Winery,43.79828,87.58856,,
AS,China,Xinjiang Uygur,Xinjiang Yiliangye Winery,43.87314,87.6367,,
AS,China,Xinjiang Uygur,Nuolan Ecology Winery,42.87076,90.22744,,
AS,China,Xinjiang Uygur,Urumqi Gongxi Winery,43.82891,87.63201,,
AS,China,Xinjiang Uygur,Guanyi Winery,43.82773,87.59791,,
AS,China,Xinjiang Uygur,Sanquan Winery,43.82496,90.27998,,
AS,Cyprus,Commandaria,Menargos Winery - Family Commandaria Winery,34.80854,32.90944,https://www.commandaria.wine/,
AS,Cyprus,Commandaria,Karseras Winery,34.81675,32.90959,http://www.commandariatheodora.com/,
AS,Cyprus,Commandaria,MONAGRI GRAPE FARM,34.80671,32.91484,,
AS,Cyprus,Commandaria,Revecca Winery,34.85061,32.9482,http://reveccawinery.com/,
AS,Cyprus,Commandaria,Commandaria Winery,34.86656,33.06207,,
AS,Cyprus,Krasochoria Lemesou,Lambouri Winery,34.87623,32.83719,http://www.lambouri.com/,
AS,Cyprus,Krasochoria Lemesou,Winery Cyprus|Cyprus Wine|Vlassides Winery,34.82935,32.8511,http://www.vlassideswinery.com/,
AS,Cyprus,Krasochoria Lemesou,Monolithos Boutique Winery,34.78448,32.79603,http://www.monolithos.eu/,
AS,Cyprus,Krasochoria Lemesou,Constantinou Winery - Οινοποιείο Κωνσταντίνου,34.86074,32.88593,http://constantinouwinery.com/,
AS,Cyprus,Krasochoria Lemesou,D. Yiaskouris Winery Ltd,34.77264,32.78205,http://www.yiaskouriswines.net/,
AS,Cyprus,Krasochoria Lemesou,KEO Mallia Winery,34.81659,32.78538,,
AS,Cyprus,Krasochoria Lemesou-Afamis,Antoniades winery,34.86715,32.83132,http://www.antoniadeswinery.com/,
AS,Cyprus,Krasochoria Lemesou-Afamis,Ayia Mavri winery,34.84396,32.86304,https://ayiamavriwinery.com/,
AS,Cyprus,Krasochoria Lemesou-Afamis,Chatzicharalampous Winery,34.84546,32.85853,https://www.chatzicharalampouswinery.com/,
AS,Cyprus,Krasochoria Lemesou-Afamis,Erimoudes Winery / Οινοποιείο Ερημούδης,34.84259,32.86402,,
AS,Cyprus,Krasochoria Lemesou-Afamis,Olympus Wineries Ltd,34.85451,32.81211,https://olympus-wineries-ltd.business.site/?utm_source=gmb&utm_medium=referral,
AS,Cyprus,Krasochoria Lemesou-Laona,Oenou Yi,34.85385,32.80749,https://www.oenouyiwine.com/,
AS,Cyprus,Krasochoria Lemesou-Laona,Ktima Gerolemo,34.86417,32.80223,http://ktimagerolemo.com/,
AS,Cyprus,Krasochoria Lemesou-Laona,Zenon Winery,34.86028,32.80851,,
AS,Cyprus,Krasochoria Lemesou-Laona,Papaioannou winery,34.83165,32.78598,,
AS,Cyprus,Krasochoria Lemesou-Laona,Linos Winery,34.83835,32.80953,https://linoswinery.com/,2;191;21;400
AS,Cyprus,Krasochoria Lemesou-Laona,Argyrides Winery,34.83474,32.79337,http://www.argyrideswinery.com/,
AS,Cyprus,Krasochoria Lemesou-Laona,Ktima Gerolemo Old Winery,34.84868,32.80952,,
AS,Cyprus,Krasochoria Lemesou-Laona,Linos Tou Charilaou,34.84864,32.80939,http://www.ktimagerolemo.com/,
AS,Cyprus,Laona Akama,Vasilikon Winery Cyprus,34.91412,32.413,http://www.vasilikon.com/,
AS,Cyprus,Laona Akama,"Sterna Winery & Wine Museum-Kathikas,Paphos",34.91713,32.43573,http://www.sterna-winery.com/,
AS,Cyprus,Larnaca,Christoudia Winery,34.84308,33.29173,http://www.christoudia.com/,
AS,Cyprus,Larnaca,Dafermou Winery / Ktima Dafermou,34.85495,33.31953,http://www.dafermouwinery.com/,
AS,Cyprus,Limassol,Zambartas Wineries,34.77659,32.82412,http://www.zambartaswineries.com/,
AS,Cyprus,Limassol,Abandoned SODAP Winery,34.6628,33.02506,,
AS,Cyprus,Limassol,KEO Winery & Brewery,34.67004,33.03317,,
AS,Cyprus,Limassol,Etko Winery,34.66221,33.01928,,
AS,Cyprus,Limassol,Oξοποιία Ποιότητας Άρτεμις,34.66378,33.02506,https://www.artemiscy.com/,
AS,Cyprus,Limassol,ΛΟΕΛ ΟΙΝΟΠΟΙΕΙΟ,34.72304,32.9511,,
AS,Cyprus,Limassol,Hadjiantonas Winery,34.7655,33.17364,http://www.hadjiantonas.com.cy/,
AS,Cyprus,Limassol,Nicolaides Winery,34.73917,32.73289,https://m.facebook.com/nicolaideswines/,
AS,Cyprus,Limassol,G. THEOPHANOUS WINERY,34.66706,32.72942,https://www.ktimatheophanous.com.cy/,
AS,Cyprus,Limassol,Τμήμα γεωργίας κλάδος αμπελουργίας οινολογιας,34.65991,33.00876,,
AS,Cyprus,Nicosia,Οινοποιείο Άγιος Αμπέλης,35.01992,33.15565,https://aesambelis.com/,
AS,Cyprus,Nicosia,Marathasa Wines,34.99687,32.83388,http://marathasawines.com/,
AS,Cyprus,Nicosia,Chateau Status,35.17705,33.35501,http://www.phokion.com,
AS,Cyprus,Nicosia,The ANAMA Concept,34.9212,33.29639,https://www.theanamaconcept.com/en/home,
AS,Cyprus,Nicosia,Povis winery,34.99464,33.11611,,
AS,Cyprus,Nicosia,Angolem Winery,35.11184,32.94468,http://www.angolemwinery.com/,
AS,Cyprus,Paphos,Tsangarides Winery,34.86103,32.55814,http://tsangarideswinery.com/,
AS,Cyprus,Paphos,Sodap winery (Kamantarena winery),34.87863,32.48825,http://www.sodap.com.cy/,
AS,Cyprus,Paphos,Kalamos Winery,34.82557,32.57933,https://kalamoswinery.com/,2;449;174;1;191;10;294;400
AS,Cyprus,Paphos,Fikardos Winery,34.81068,32.44825,http://www.fikardoswines.com.cy/,
AS,Cyprus,Paphos,Makarounas Vineyards,34.85647,32.51611,http://www.makarounaswinery.com/,
AS,Cyprus,Paphos,Ezousa Winery,34.91484,32.57404,https://ezousa.com/,449;18;4;8;400
AS,Cyprus,Paphos,Nelion Winery,34.85499,32.7513,http://www.nelionwinery.com/,
AS,Cyprus,Paphos,Hadjicharalambous Boutique Winery,34.8853,32.47824,http://hchwinery.com/,
AS,Cyprus,Paphos,Labodega Cava,34.78455,32.42166,http://www.labodegacava.com/,
AS,Cyprus,Paphos,Lagria Winery - Οινοποιείο Λακριά,34.83319,32.68856,https://lagriawinery.com/,2;174;4;400
AS,Cyprus,Paphos,Mystes Winery,34.74999,32.67728,https://www.facebook.com/profile.php?id=100057607023493,
AS,Cyprus,Paphos,Cyprus Trade Centre,34.78754,32.43473,http://ctcdubai.org/wine/,
AS,Cyprus,Paphos,Kamantarena Winery,34.87855,32.48845,http://www.kamanterena.com.cy/,
AS,Cyprus,Pitsilia,Tsiakkas Winery,34.88458,32.94499,https://tsiakkaswinery.com/,1;0;5;400
AS,Cyprus,Pitsilia,Ekfraseis Winery,34.94458,32.99089,http://www.ekfraseis.com/,
AS,Cyprus,Pitsilia,Santa Irene Winery,34.91951,33.13774,https://www.santairenewinery.com/,
AS,Cyprus,Pitsilia,Kyperounta Winery,34.94423,32.98188,http://www.kyperoundawinery.com/,
AS,Cyprus,Vouni Panagias-Ampelitis,Vouni Panayia Winery,34.92099,32.62593,http://www.vounipanayiawinery.com/,
AS,Cyprus,Vouni Panagias-Ampelitis,Kolios winery,34.89206,32.61494,https://www.kolioswinery.com.cy/,39;449
AS,Cyprus,Vouni Panagias-Ampelitis,Nikodemos Winery Panayia,34.91956,32.62879,https://nikodemoswinery.com/,
AS,Cyprus,Vouni Panagias-Ampelitis,Avacas Winery,34.88107,32.619,,
AS,Cyprus,Vouni Panagias-Ampelitis,Shoufas Winery,34.8839,32.63132,http://www.shoufas.com/,
AS,Cyprus,Vouni Panagias-Ampelitis,Pýrkoi,34.90835,32.63298,,
AS,Cyprus,Vouni Panagias-Ampelitis,Makkas winery,34.89189,32.61294,,
AS,GE,Ambrolauri,ერთხელ რაჭაში/once in racha,42.46103,43.08444,https://www.facebook.com/once.in.racha/?notif_id=1622931966203899&notif_t=page_fan&ref=notif,
AS,GE,Bich'vinta,Chateau Abkhaz,43.20577,40.28811,,
AS,GE,Tsqnet'i,Kiketi Farm Wine/კიკეთის ფერმის ღვინო,41.64472,44.64291,https://www.facebook.com/KiketiFarmWine/,215
AS,GE,Tsqnet'i,Gotsa Wines,41.64987,44.63754,http://www.gotsawines.com/,
AS,GE,Tsqnet'i,Tanini,41.64744,44.64432,https://www.facebook.com/taniniwine/,
AS,Georgia,Akhasheni,Chateau Zegaani,41.79674,45.73848,http://www.chateau-zegaani.com/,
AS,Georgia,Akhasheni,Papari Valley - Vineyards and Winery,41.78216,45.74681,https://www.facebook.com/papari.valley,
AS,Georgia,Akhmeta,Akhmeta Wine House,42.03398,45.20816,http://www.akhmetawinehouse.ge/,
AS,Georgia,Akhmeta,Palavani,42.00486,45.27579,http://www.palavani.com/,
AS,Georgia,Akhmeta,Orovela Vinery,42.0051,45.34177,http://www.orovela.com/,
AS,Georgia,Akhmeta,Danieli Winery,42.10026,45.38744,http://www.danieliwinery.com/,
AS,Georgia,Akhmeta,Lagazi Wine Cellar,42.03756,45.30041,https://www.facebook.com/LagaziWineCellar/,
AS,Georgia,Atenuri,Chateau Ateni,41.94404,44.11667,http://chateauateni.ge/,
AS,Georgia,Georgian Viticulture Zone,Zemarani Winery,42.14522,43.02196,,
AS,Georgia,Georgian Viticulture Zone,Adjarian Wine House,41.54834,41.74147,http://awh.ge/,
AS,Georgia,Georgian Viticulture Zone,Mate's Wine Cellar,42.27401,42.66608,http://www.facebook.com/winecellarmate,
AS,Georgia,Georgian Viticulture Zone,Winery Georgino,41.84758,44.7121,https://www.facebook.com/WineryGeorgino,
AS,Georgia,Georgian Viticulture Zone,შატო მუხრანი,41.94201,44.58138,,
AS,Georgia,Georgian Viticulture Zone,Vintners & Vagabonds,42.08437,42.6733,http://www.vintnersandvagabonds.com/,
AS,Georgia,Georgian Viticulture Zone,გაიოზ სოფრომაძის მარანი,42.07253,42.83162,,
AS,Georgia,Georgian Viticulture Zone,Odo’s Winery - ოდოს მეღვინეობა,42.48045,42.34242,,
AS,Georgia,Georgian Viticulture Zone,Iago’s Winery,41.88638,44.65261,http://www.iago.ge/,
AS,Georgia,Georgian Viticulture Zone,Family winery Napheri,41.97963,44.74654,http://facebook.com/napheri,
AS,Georgia,Georgian Viticulture Zone,Otia's Ezo,42.32076,42.59312,,
AS,Georgia,Georgian Viticulture Zone,Wine Artisans Chateau,41.95019,44.09345,http://www.abwineart.ge/,
AS,Georgia,Georgian Viticulture Zone,ასკანელი - Askaneli,41.69204,44.997,http://askaneli.ge/,
AS,Georgia,Georgian Viticulture Zone,Vazis Xidi,42.17424,42.66952,http://www.vazisxidi.com/,
AS,Georgia,Georgian Viticulture Zone,Giorbelidze Winery,42.54405,42.66635,https://www.facebook.com/giorbelidzewinery/,
AS,Georgia,Georgian Viticulture Zone,Tato's Wine House,42.06787,42.84123,,
AS,Georgia,Georgian Viticulture Zone,Usakhelouri,42.54284,42.66927,http://usakhelouri.ge/,
AS,Georgia,Georgian Viticulture Zone,Managadze Family Winery • მანაგაძეების მარანი,42.54096,42.65641,http://www.facebook.com/managadzewinery/,
AS,Georgia,Georgian Viticulture Zone,"Chateau ""Chikovani""",42.45231,42.52244,http://www.chateauchikovani.com/,
AS,Georgia,Georgian Viticulture Zone,Martvilis Marani,42.44588,42.28643,https://www.facebook.com/martvilismarani/,
AS,Georgia,Georgian Viticulture Zone,Zurab Ghvaladze Winery,42.10017,42.90227,https://www.facebook.com/profile.php?id=118044991875722&ref=br_rs,
AS,Georgia,Georgian Viticulture Zone,გოგიას მარანი,42.31366,42.57882,https://www.facebook.com/profile.php?id=100026064001500,
AS,Georgia,Georgian Viticulture Zone,მეღვინეობა თევზაძე,42.54595,42.68032,http://www.tevzadzewinery.com/,
AS,Georgia,Georgian Viticulture Zone,Nanua Winery Gia Chubinidze,42.1843,42.97365,,
AS,Georgia,Georgian Viticulture Zone,Tazo's Winery,42.14909,42.28169,,
AS,Georgia,Georgian Viticulture Zone,"Maximus Wine Cellar & Guest House,Bagdati Wine House",42.08117,42.82211,https://www.facebook.com/WineCellarMaximus,
AS,Georgia,Georgian Viticulture Zone,Simon Chkheidze Wine Cellar,42.10674,42.89524,https://www.facebook.com/SimonChkheidzeWineCellar/,
AS,Georgia,Georgian Viticulture Zone,Tamarisis Marani,42.11835,42.78352,,
AS,Georgia,Georgian Viticulture Zone,Nikoladzeebi's Wine Cellar,42.21919,42.82118,,
AS,Georgia,Georgian Viticulture Zone,Nikoladze winery,42.22437,42.82954,,
AS,Georgia,Georgian Viticulture Zone,Bodokia winery - ბოდოკიების მეღვინეობა,42.17316,42.6775,,
AS,Georgia,Georgian Viticulture Zone,Targameuli Winery,42.44345,42.2853,https://www.facebook.com/targameuliwinecellar/,
AS,Georgia,Georgian Viticulture Zone,Demetra's Winery,42.09258,42.86448,,
AS,Georgia,Georgian Viticulture Zone,Kote Kavtaradze Wine Cellar,42.19371,42.97176,,
AS,Georgia,Georgian Viticulture Zone,Freya's Marani (Enek Peterson wine),42.08681,42.81925,,
AS,Georgia,Georgian Viticulture Zone,Sanikidze Winery,42.16645,42.36266,https://www.sanikidze.ge/,823;245;215
AS,Georgia,Georgian Viticulture Zone,Winery - White Mulberry,42.19085,42.96815,,
AS,Georgia,Georgian Viticulture Zone,Archil Guniavas Marani,42.0967,42.98031,,
AS,Georgia,Georgian Viticulture Zone,Sazano Winery,42.23355,43.06744,,
AS,Georgia,Georgian Viticulture Zone,Winary Zodi,42.33775,43.30828,,
AS,Georgia,Georgian Viticulture Zone,Château Mukhrani Wine Bar,41.6896,44.80911,,
AS,Georgia,Georgian Viticulture Zone,Kapistoni Winery,41.91004,44.77063,http://www.kapistoniwines.com/,
AS,Georgia,Georgian Viticulture Zone,Dugladze Wine Company,41.69513,44.93252,http://dwc.ge/,
AS,Georgia,Georgian Viticulture Zone,Фермерское Хозяйство Отырба,43.2668,40.39609,https://www.otyrba.abh.asia/,
AS,Georgia,Georgian Viticulture Zone,Аргун Иашта,43.14614,40.64813,https://m.facebook.com/arguniashta/,
AS,Georgia,Georgian Viticulture Zone,ღვინის ქარხანა,43.08359,40.82725,,
AS,Georgia,Georgian Viticulture Zone,Винный Храм,43.22335,40.41698,,
AS,Georgia,Georgian Viticulture Zone,Obene Winery,42.60966,42.17241,https://www.facebook.com/Winery-Obene-108139577274259/,
AS,Georgia,Georgian Viticulture Zone,Винодельня абхазская,43.22222,40.40237,,
AS,Georgia,Georgian Viticulture Zone,მენაბდის მარანი / Menabde Winery,41.91359,42.07391,https://www.facebook.com/MenabdesWineCellar,
AS,Georgia,Georgian Viticulture Zone,Chateau Zarra,42.49571,41.87761,,
AS,Georgia,Georgian Viticulture Zone,Orkoli Winery,42.60125,42.16716,https://www.facebook.com/orkoliwines,
AS,Georgia,Georgian Viticulture Zone,Wine House Dito,41.85031,41.78065,,
AS,Georgia,Georgian Viticulture Zone,შატო ლაბარა Chateau Labara,42.1253,42.7194,http://www.labarawinery.com/,
AS,Georgia,Georgian Viticulture Zone,Частная винодельня,43.14067,40.60329,,
AS,Georgia,Georgian Viticulture Zone,Lado Shavishvili's Wine Cellar,41.61619,41.9793,,
AS,Georgia,Georgian Viticulture Zone,Tsertsvadze Wine Cellar,41.85986,41.78185,,
AS,Georgia,Georgian Viticulture Zone,Merebashvili's Marani,41.93517,44.42512,http://www.merebashvili.com/,
AS,Georgia,Georgian Viticulture Zone,Nebi Winery,41.88596,44.6463,https://www.facebook.com/Nebi-Aslanishvili-Winery-808463785865384/,
AS,Georgia,Georgian Viticulture Zone,Rtvelisi Wines & Spirits,41.73028,44.7877,https://www.rtvelisi.com/,
AS,Georgia,Georgian Viticulture Zone,Bantle's Wines,41.84935,44.59682,https://www.facebook.com/BantlesWines/,
AS,Georgia,Georgian Viticulture Zone,Bolero & Company,41.74761,44.77063,http://www.bolero.ge/,
AS,Georgia,Georgian Viticulture Zone,მარანი თეძამი,41.88021,44.33873,https://www.facebook.com/TedzamiWines,
AS,Georgia,Georgian Viticulture Zone,TEVZA WINERY,41.89644,44.75488,,
AS,Georgia,Georgian Viticulture Zone,შვიდი ვაინი,41.78613,44.79199,http://shvidiwine.com/,
AS,Georgia,Georgian Viticulture Zone,Winery Khareba,41.70294,44.79147,http://www.winery-khareba.com/,
AS,Georgia,Georgian Viticulture Zone,Winery IGI,41.73043,44.83939,,
AS,Georgia,Georgian Viticulture Zone,Danieli Winery,41.73235,44.761,http://www.danieliwinery.com/?page_id=1081,
AS,Georgia,Georgian Viticulture Zone,Marniskari,41.7205,44.77927,http://www.marniskari.ge/,
AS,Georgia,Georgian Viticulture Zone,SHTURO-შტურო,42.64218,42.75425,,
AS,Georgia,Georgian Viticulture Zone,Parkosadze wine,42.35286,43.441,https://www.facebook.com/parkosadzewine,
AS,Georgia,Georgian Viticulture Zone,Winegenius,42.11193,42.79303,,
AS,Georgia,Georgian Viticulture Zone,Mirian's Winnery,42.08339,42.81225,,
AS,Georgia,Georgian Viticulture Zone,Chateau Berdisi,42.07127,43.04411,,
AS,Georgia,Georgian Viticulture Zone,Nadzveli Marani ონისე კბილაშვილის მარანი,42.10995,42.79126,,
AS,Georgia,Georgian Viticulture Zone,Winery Khareba,42.273,42.70484,http://winerykhareba.com/,
AS,Georgia,Georgian Viticulture Zone,გია ჯამბერიძის მარანი Gia Jamberidze Cellar,42.00049,42.19956,,
AS,Georgia,Georgian Viticulture Zone,ნატრიაშვილების მარანი,42.10031,42.81936,,
AS,Georgia,Georgian Viticulture Zone,Mama Timote's cellar მამა ტიმოთეს მარანი,42.08708,42.84018,,
AS,Georgia,Georgian Viticulture Zone,Winery Machitadze Family,42.093,42.84152,,
AS,Georgia,Georgian Viticulture Zone,ხომლის მარანი • Khomlis Marani,42.31381,42.57844,,
AS,Georgia,Georgian Viticulture Zone,Nagutnebi Winery -მეღვინეობა ნაგუთნები,42.0912,42.83779,,
AS,Georgia,Gurjaani,IBERO WINERY,41.85062,45.64354,http://iberowinery.ge/,
AS,Georgia,Gurjaani,Pavilion Wines,41.85022,45.64117,,
AS,Georgia,Gurjaani,Numisi Cellar Museum,41.80785,45.75054,,
AS,Georgia,Gurjaani,MUKUZANI WINERY LLC,41.80542,45.71261,,
AS,Georgia,Gurjaani,Berika's Winery,41.81114,45.78026,http://anaberika.ge/,
AS,Georgia,Kakheti,Kerovani Winery,41.61758,45.92315,http://kerovani.com/,
AS,Georgia,Kakheti,Khareba Winery,41.93614,45.83341,https://winery-khareba.com/en/,
AS,Georgia,Kakheti,Gio's Wine Cellar,41.61664,45.92055,,
AS,Georgia,Kakheti,Cradle of Wine Marani,41.61665,45.91511,,
AS,Georgia,Kakheti,Gurami Papa's Winery,41.73782,45.32976,,
AS,Georgia,Kakheti,Ikano Estate,41.9743,45.74488,http://www.ikanoestate.ge/,
AS,Georgia,Kakheti,Kvareli Wine Cave,41.93601,45.83343,http://www.winery-khareba.com/,
AS,Georgia,Kakheti,Cherkeza's Zedashe,41.6088,45.9008,https://www.facebook.com/cherkezaszedashe/,
AS,Georgia,Kakheti,Tsinandali Estate Vineyards,41.88842,45.55981,http://tsinandaliestate.ge/,
AS,Georgia,Kakheti,Pheasant's Tears Winery,41.61606,45.92035,https://www.pheasantstears.com/,
AS,Georgia,Kakheti,Nasrashvili Family Winery,41.46696,46.1052,,
AS,Georgia,Kakheti,Winery Shatiri,41.82801,46.26734,http://www.shatiri.ge/,
AS,Georgia,Kakheti,Vazha Getiashvili Wine Cellar,41.65719,45.68072,https://www.facebook.com/VazhaGetiashvili/,
AS,Georgia,Khvanchkara,Royal Khvanchkara,42.52091,43.15113,https://royalkhvanchkara.ge/,577;170;707;751;966;370
AS,Georgia,Khvanchkara,Nika's Rachan Winery,42.55759,43.02645,https://www.facebook.com/Nikas-Rachian-Winery-102236594492739/,
AS,Georgia,Khvanchkara,Sad Meli Winery,42.54346,43.10789,https://www.sadmeli.com/,
AS,Georgia,Khvanchkara,Aleko Sardanashvili's Guest House and Winery,42.56002,43.01761,,
AS,Georgia,Khvanchkara,Barakoni Winery,42.5421,43.07501,,
AS,Georgia,Khvanchkara,Wine Factory,42.55964,43.02403,http://khvanchkara.net/,
AS,Georgia,Khvanchkara,Margvelidze Winery & guesthouse,42.53887,43.12167,,
AS,Georgia,Khvanchkara,Tkeshelashvili's Wine Cellar,42.55826,43.02838,,
AS,Georgia,Khvanchkara,Kabistoni Wine Cellar,42.56214,43.01971,http://www.khvanchkara.ge/,
AS,Georgia,Khvanchkara,Daraseuli Winery,42.54402,43.07672,,
AS,Georgia,Khvanchkara,Winery Orbeli,42.62855,42.82897,,
AS,Georgia,Khvanchkara,Vasil Dvali Winery,42.53067,43.07222,,
AS,Georgia,Khvanchkara,Winery Melitoni / მეღვინეობა მელიტონი,42.52618,43.15651,,
AS,Georgia,Khvanchkara,Winery Ambra,42.53739,43.05983,https://www.ambra.ge/ka,577;707
AS,Georgia,Khvanchkara,Винодельня Александраули,42.54192,43.05245,,
AS,Georgia,Khvanchkara,ტარიელ ლომთაძის მარანი - Lomtadze Family Wine/Hotel,42.56117,43.02397,,
AS,Georgia,Khvanchkara,"Metonidze's Winery ""Khvanchkara""",42.56616,43.02521,https://www.facebook.com/profile.php?id=61557546836678&mibextid=ZbWKwL,
AS,Georgia,Khvanchkara,Naberauli • ნაბერაული,42.53508,43.11191,https://naberauli.ge/,577;170;370
AS,Georgia,Khvanchkara,მენაბდე • Menabde,42.53331,43.1242,https://www.facebook.com/menabdevineyards,
AS,Georgia,Khvanchkara,კერესელიძეების მარანი (Kereselidze Wine Cellar),42.52957,43.13027,https://www.facebook.com/kereselidze.winecellar/,
AS,Georgia,Khvanchkara,წულუკიძის მეღვინეობა,42.50375,43.15266,https://www.facebook.com/tsulukidzewine/,577
AS,Georgia,Khvanchkara,Kakhaberi's Marani,42.52959,43.07096,,
AS,Georgia,Khvanchkara,Orbelis marani,42.63767,42.82709,,
AS,Georgia,Khvanchkara,Tsikare - Akhobadze Family Cellar,42.56526,43.02689,,
AS,Georgia,Khvanchkara,Chateau Dotte • შატო დოტე,42.54912,43.045,,
AS,Georgia,Kindzmarauli,Chubini Winery & Cabins,41.9852,45.70261,https://www.facebook.com/chubiniwine/,245
AS,Georgia,Kindzmarauli,Shilda Winery and Restaurant,41.97944,45.69654,http://www.shilda.com/,
AS,Georgia,Kindzmarauli,"JSC ""Corporation Kindzmarauli""",41.94722,45.81446,http://www.duruji-valley.com/,
AS,Georgia,Kindzmarauli,Gremeli Wine & Hotel in Kakheti,42.01285,45.66838,http://www.gremeli.ge/,
AS,Georgia,Kindzmarauli,Askaneli Winery & Distillery LLC,41.87516,45.81683,https://askaneli.ge/,853;245;499;707;215;0;370;10;796
AS,Georgia,Kindzmarauli,Graneli Winery,41.93696,45.83003,,
AS,Georgia,Kindzmarauli,Javakhishvili Wine Cellar,41.87925,45.9958,https://www.facebook.com/%E1%83%AF%E1%83%90%E1%83%95%E1%83%90%E1%83%AE%E1%83%98%E1%83%A8%E1%83%95%E1%83%98%E1%83%9A%E1%83%94%E1%83%91%E1%83%98%E1%83%A1-%E1%83%9B%E1%83%90%E1%83%A0%E1%83%90%E1%83%9C%E1%83%98-Javakhishvilis-Cellar-377703942740392/,245
AS,Georgia,Kindzmarauli,Tbilvino winery Kvareli,41.94299,45.75556,http://tbilvino.ge/,
AS,Georgia,Kindzmarauli,Zangaura Winery,41.83526,45.97089,http://georgianwines.com/,
AS,Georgia,Kindzmarauli,Chateau Bruale შატო ბრუალე,41.86687,46.01913,http://www.bruale.com/,
AS,Georgia,Kindzmarauli,Gigo Papa's Wine Cellar,41.95376,45.81756,https://www.facebook.com/GigoPapasWineCellar/,
AS,Georgia,Kindzmarauli,Mikheil's Marani,41.93552,45.80139,,
AS,Georgia,Kindzmarauli,Kindzmarauli Marani,41.91602,45.77114,http://kmwine.ge/,
AS,Georgia,Kindzmarauli,"Jobava Winery, მეღვინეობა ჯობავა",41.9679,45.70796,https://jobavawinery.com/,
AS,Georgia,Kindzmarauli,მარანი შავერგე და კოტეჯები • Shaverge Wine Cellar and kottejes,41.95405,45.73817,https://www.facebook.com/shavergewinecellar/,
AS,Georgia,Kindzmarauli,200 years old qvevri in the wine cellar / 200 წლის ქვევრი მარანში,42.00009,45.66814,,
AS,Georgia,Kindzmarauli,Winery naperebi,41.96154,45.76086,https://instagram.com/naperebiwinery?igshid=YmMyMTA2M2Y=,
AS,Georgia,Kindzmarauli,ყვარლის სარდაფი,41.89954,45.95608,http://kvarelicellar.ge/,
AS,Georgia,Kindzmarauli,Chateau Gremisio,41.99882,45.65525,,
AS,Georgia,Kotekhi,Kotekhi - Winery of Gurjaani,41.75613,45.78725,,
AS,Georgia,Manavi,Vineria Kakheti,41.72631,45.42166,http://vineriakakheti.ge/,
AS,Georgia,Manavi,Giuaani Winery,41.72026,45.46376,http://giuaani.ge/,
AS,Georgia,Manavi,VELLINO Wine Cellar,41.70874,45.52739,http://facebook.com/vellinowines/,
AS,Georgia,Napareuli,Château Buera,42.05847,45.52394,https://chateaubuera.com/,
AS,Georgia,Napareuli,Twins Wine House in Napareuli - Winery and Hotel Resort,42.03949,45.50315,http://twinswinehouse.com/,
AS,Georgia,Napareuli,Chateau Napareuli,42.04835,45.50259,http://www.chateaunapareuli.pl/,
AS,Georgia,Napareuli,Artanuli Wine,42.0754,45.51202,http://www.facebook.com/artanuligvino,
AS,Georgia,Saperavi Khashmi,Mtevino,41.74256,45.18419,https://www.facebook.com/Mtevino-%E1%83%9B%E1%83%A2%E1%83%94%E1%83%95%E1%83%98%E1%83%9C%E1%83%9D-402900063910714/,
AS,Georgia,Saperavi Khashmi,Khashmi Hills,41.77806,45.17836,https://www.khashmihills.ge/,
AS,Georgia,Sviri,Mshvenieradze winery,42.14843,42.84613,https://www.mshvenieradze.com/,245;170
AS,Georgia,Sviri,Marani Lokokina,42.11803,42.94622,http://instagram.com/lokokina.ge,
AS,Georgia,Teliani,Corporation Georgian Wine,41.89897,45.59483,,
AS,Georgia,Tibaani,Pheasant Tears WINERY,41.58604,45.99984,,
AS,Georgia,Tsarapi,Kardanakhi Estate,41.66001,45.90356,http://www.kardanakhiestate.ge/,
AS,Georgia,Tsarapi,Nika Winery,41.66089,45.90538,,
AS,Georgia,Tsarapi,Elizbar Talakvadze Winery,41.68287,45.88822,,
AS,Georgia,Tsarapi,Shalvino LLc Gvaramadze Winery,41.68131,45.89272,http://www.shalvino.ge/,
AS,Georgia,Tsinandali,Shumi Winery Kakheti,41.89974,45.56902,http://www.shumiwinery.com/,
AS,Georgia,Tsinandali,GWS Georgian Wines & Spirits,41.94281,45.47483,http://www.gws.ge/,
AS,Georgia,Tsinandali,Sesikeli Winery,41.91282,45.48069,https://www.sesikeli.com/,567;245;170;215;370
AS,Georgia,Tsinandali,Family winery Rostomaant Marani,41.91552,45.47821,http://www.rostomaantmarani.ge/,
AS,Georgia,Tsinandali,Mildiani Family Winery,41.90642,45.56279,http://www.mildiani.ge/,
AS,Georgia,Tsinandali,Schuchmann Wines Chateau,41.90002,45.54125,http://www.schuchmann-wines.com/,
AS,Georgia,Tsinandali,Vaziani Winery LTD,41.92656,45.50533,http://vaziani.ge/,
AS,Georgia,Tsinandali,Brothers Khutsishvili Wine Cellar | ძმები ხუციშვილების ღვინის მარანი,41.89939,45.54352,,
AS,Georgia,Tsinandali,Tsinandali-The best wines of the XXI century,41.89945,45.59155,http://www.tsinandali21.ge/,
AS,Georgia,Tsinandali,Nadelebi,41.92351,45.4889,https://www.instagram.com/nadelebiwines/,
AS,Georgia,Tsinandali,Zurab Kviriashvili Vineyards,41.91396,45.47065,http://zkvineyards.com/,
AS,Georgia,Tsinandali,Besini Winery,41.91316,45.59775,http://www.besiniwine.ge/,
